[2024-04-26 16:42:45.555074] $GPRMC,202052.00,V,,,,,,,260424,,,N*7C

[2024-04-26 16:42:46.245715] $GPRMC,202053.00,V,,,,,,,260424,,,N*7D

[2024-04-26 16:42:47.246003] $GPRMC,202054.00,V,,,,,,,260424,,,N*7A

[2024-04-26 16:42:48.245757] $GPRMC,202055.00,V,,,,,,,260424,,,N*7B

[2024-04-26 16:42:49.246396] $GPRMC,202056.00,V,,,,,,,260424,,,N*78

[2024-04-26 16:42:50.403696] $GPRMC,202057.00,V,,,,,,,260424,,,N*79

[2024-04-26 16:42:51.246280] $GPRMC,202058.00,V,,,,,,,260424,,,N*76

[2024-04-26 16:42:52.246443] $GPRMC,202059.00,V,,,,,,,260424,,,N*77

[2024-04-26 16:42:53.245527] $GPRMC,202100.00,V,,,,,,,260424,,,N*7A

[2024-04-26 16:42:55.302821] $GPRMC,202101.00,V,,,,,,,260424,,,N*7B

[2024-04-26 16:42:55.320156] $GPRMC,202102.00,V,,,,,,,260424,,,N*78

[2024-04-26 16:42:56.485546] $GPRMC,202103.00,V,,,,,,,260424,,,N*79

[2024-04-26 16:42:57.298805] $GPRMC,202104.00,A,3819.37895,N,02707.32219,E,10.987,286.03,260424,,,A*5F

[2024-04-26 16:42:58.300816] $GPRMC,202105.00,A,3819.37889,N,02707.31822,E,10.773,283.05,260424,,,A*54

[2024-04-26 16:42:59.298517] $GPRMC,202106.00,A,3819.37922,N,02707.31442,E,10.068,280.17,260424,,,A*50

[2024-04-26 16:43:00.300931] $GPRMC,202107.00,A,3819.37941,N,02707.31136,E,7.680,278.05,260424,,,A*60

[2024-04-26 16:43:01.298610] $GPRMC,202108.00,A,3819.37997,N,02707.30925,E,5.110,277.69,260424,,,A*66

[2024-04-26 16:43:02.300623] $GPRMC,202109.00,A,3819.38065,N,02707.30809,E,2.383,,260424,,,A*7F

[2024-04-26 16:43:03.302042] $GPRMC,202107.00,A,3819.38196,N,02707.30753,E,1.836,,260424,,,A*7A

[2024-04-26 16:43:04.302037] $GPRMC,202108.00,A,3819.38310,N,02707.30681,E,3.035,297.65,260424,,,A*6F

[2024-04-26 16:43:05.300475] $GPRMC,202109.00,A,3819.38559,N,02707.30629,E,4.161,311.38,260424,,,A*67

[2024-04-26 16:43:06.299268] $GPRMC,202110.00,A,3819.38609,N,02707.30508,E,4.917,318.81,260424,,,A*6B

[2024-04-26 16:43:07.298865] $GPRMC,202111.00,A,3819.38693,N,02707.30382,E,6.417,327.53,260424,,,A*61

[2024-04-26 16:43:08.299328] $GPRMC,202112.00,A,3819.38876,N,02707.30244,E,7.749,331.55,260424,,,A*64

[2024-04-26 16:43:09.305517] $GPRMC,202113.00,A,3819.39068,N,02707.30074,E,8.706,331.13,260424,,,A*64

[2024-04-26 16:43:10.301632] $GPRMC,202114.00,A,3819.39254,N,02707.29873,E,8.672,326.54,260424,,,A*6E

[2024-04-26 16:43:11.300861] $GPRMC,202115.00,A,3819.39389,N,02707.29636,E,8.309,316.02,260424,,,A*68

[2024-04-26 16:43:12.300684] $GPRMC,202116.00,A,3819.39495,N,02707.29382,E,7.892,303.19,260424,,,A*63

[2024-04-26 16:43:13.298328] $GPRMC,202117.00,A,3819.39461,N,02707.29116,E,7.301,287.02,260424,,,A*60

[2024-04-26 16:43:14.300815] $GPRMC,202118.00,A,3819.39358,N,02707.28907,E,6.375,251.37,260424,,,A*64

[2024-04-26 16:43:15.297380] $GPRMC,202119.00,A,3819.39280,N,02707.28765,E,5.537,235.28,260424,,,A*64

[2024-04-26 16:43:16.298005] $GPRMC,202120.00,A,3819.39202,N,02707.28654,E,5.518,230.20,260424,,,A*67

[2024-04-26 16:43:17.297344] $GPRMC,202121.00,A,3819.39046,N,02707.28538,E,6.792,212.85,260424,,,A*61

[2024-04-26 16:43:18.298489] $GPRMC,202122.00,A,3819.38874,N,02707.28421,E,7.916,209.06,260424,,,A*61

[2024-04-26 16:43:19.298211] $GPRMC,202123.00,A,3819.38652,N,02707.28264,E,8.730,209.34,260424,,,A*69

[2024-04-26 16:43:20.299189] $GPRMC,202124.00,A,3819.38414,N,02707.28100,E,9.212,208.03,260424,,,A*6E

[2024-04-26 16:43:21.298276] $GPRMC,202125.00,A,3819.38182,N,02707.27939,E,10.726,207.98,260424,,,A*5F

[2024-04-26 16:43:22.298539] $GPRMC,202126.00,A,3819.37959,N,02707.27847,E,9.575,199.49,260424,,,A*61

[2024-04-26 16:43:23.297257] $GPRMC,202127.00,A,3819.37661,N,02707.27751,E,9.755,193.70,260424,,,A*6C

[2024-04-26 16:43:24.297594] $GPRMC,202128.00,A,3819.37379,N,02707.27727,E,10.177,187.46,260424,,,A*50

[2024-04-26 16:43:25.296680] $GPRMC,202129.00,A,3819.37107,N,02707.27748,E,9.931,180.87,260424,,,A*6B

[2024-04-26 16:43:26.297293] $GPRMC,202130.00,A,3819.36776,N,02707.27808,E,11.727,176.36,260424,,,A*5A

[2024-04-26 16:43:27.298425] $GPRMC,202131.00,A,3819.36394,N,02707.27857,E,13.061,174.71,260424,,,A*5F

[2024-04-26 16:43:28.298903] $GPRMC,202132.00,A,3819.36068,N,02707.27924,E,12.537,173.67,260424,,,A*5E

[2024-04-26 16:43:29.294793] $GPRMC,202133.00,A,3819.35759,N,02707.27983,E,12.102,174.10,260424,,,A*51

[2024-04-26 16:43:30.297344] $GPRMC,202134.00,A,3819.35469,N,02707.28027,E,11.831,176.58,260424,,,A*5A

[2024-04-26 16:43:31.298549] $GPRMC,202135.00,A,3819.35183,N,02707.28070,E,11.468,175.95,260424,,,A*5A

[2024-04-26 16:43:32.299251] $GPRMC,202136.00,A,3819.35016,N,02707.28146,E,8.907,174.07,260424,,,A*66

[2024-04-26 16:43:33.298301] $GPRMC,202137.00,A,3819.34802,N,02707.28200,E,8.794,173.45,260424,,,A*6F

[2024-04-26 16:43:34.297322] $GPRMC,202138.00,A,3819.34562,N,02707.28241,E,9.475,174.17,260424,,,A*63

[2024-04-26 16:43:35.297656] $GPRMC,202139.00,A,3819.34328,N,02707.28292,E,9.729,174.12,260424,,,A*6B

[2024-04-26 16:43:36.299185] $GPRMC,202140.00,A,3819.34089,N,02707.28353,E,9.535,172.84,260424,,,A*67

[2024-04-26 16:43:37.297418] $GPRMC,202141.00,A,3819.33793,N,02707.28412,E,10.403,171.47,260424,,,A*5F

[2024-04-26 16:43:38.298566] $GPRMC,202142.00,A,3819.33442,N,02707.28465,E,11.519,172.39,260424,,,A*52

[2024-04-26 16:43:39.305902] $GPRMC,202143.00,A,3819.33104,N,02707.28528,E,12.821,174.04,260424,,,A*51

[2024-04-26 16:43:40.300584] $GPRMC,202144.00,A,3819.32721,N,02707.28571,E,13.569,174.81,260424,,,A*57

[2024-04-26 16:43:41.299635] $GPRMC,202145.00,A,3819.32300,N,02707.28598,E,14.313,176.23,260424,,,A*50

[2024-04-26 16:43:42.299685] $GPRMC,202146.00,A,3819.31839,N,02707.28611,E,15.426,177.17,260424,,,A*55

[2024-04-26 16:43:43.299843] $GPRMC,202147.00,A,3819.31473,N,02707.28649,E,14.058,176.53,260424,,,A*56

[2024-04-26 16:43:44.303503] $GPRMC,202148.00,A,3819.31033,N,02707.28668,E,15.401,177.26,260424,,,A*50

[2024-04-26 16:43:45.299650] $GPRMC,202149.00,A,3819.30600,N,02707.28686,E,15.731,177.79,260424,,,A*5C

[2024-04-26 16:43:46.298955] $GPRMC,202150.00,A,3819.30219,N,02707.28718,E,14.911,177.54,260424,,,A*5C

[2024-04-26 16:43:47.298741] $GPRMC,202151.00,A,3819.29761,N,02707.28735,E,16.433,177.81,260424,,,A*57

[2024-04-26 16:43:48.299487] $GPRMC,202152.00,A,3819.29329,N,02707.28767,E,15.895,176.50,260424,,,A*55

[2024-04-26 16:43:49.298583] $GPRMC,202153.00,A,3819.28879,N,02707.28790,E,15.795,176.19,260424,,,A*51

[2024-04-26 16:43:50.298682] $GPRMC,202154.00,A,3819.28461,N,02707.28835,E,15.769,175.90,260424,,,A*52

[2024-04-26 16:43:51.298745] $GPRMC,202155.00,A,3819.28075,N,02707.28856,E,14.914,178.79,260424,,,A*58

[2024-04-26 16:43:52.300279] $GPRMC,202156.00,A,3819.27715,N,02707.28844,E,12.886,183.08,260424,,,A*58

[2024-04-26 16:43:53.299396] $GPRMC,202157.00,A,3819.27337,N,02707.28803,E,12.997,184.57,260424,,,A*52

[2024-04-26 16:43:54.299162] $GPRMC,202158.00,A,3819.26906,N,02707.28725,E,13.511,187.84,260424,,,A*51

[2024-04-26 16:43:55.298668] $GPRMC,202159.00,A,3819.26452,N,02707.28638,E,13.978,188.61,260424,,,A*56

[2024-04-26 16:43:56.302724] $GPRMC,202200.00,A,3819.25991,N,02707.28535,E,14.131,189.10,260424,,,A*53

[2024-04-26 16:43:57.299178] $GPRMC,202201.00,A,3819.25538,N,02707.28417,E,12.651,192.24,260424,,,A*56

[2024-04-26 16:43:58.298835] $GPRMC,202202.00,A,3819.24899,N,02707.28208,E,10.923,200.12,260424,,,A*5F

[2024-04-26 16:43:59.297732] $GPRMC,202203.00,A,3819.24623,N,02707.27995,E,10.388,211.78,260424,,,A*56

[2024-04-26 16:44:00.299389] $GPRMC,202204.00,A,3819.24477,N,02707.27737,E,9.666,226.33,260424,,,A*62

[2024-04-26 16:44:01.299136] $GPRMC,202205.00,A,3819.24284,N,02707.27389,E,10.090,232.94,260424,,,A*57

[2024-04-26 16:44:02.300184] $GPRMC,202206.00,A,3819.24172,N,02707.27000,E,11.156,248.89,260424,,,A*57

[2024-04-26 16:44:03.300118] $GPRMC,202207.00,A,3819.24115,N,02707.26572,E,12.263,257.29,260424,,,A*54

[2024-04-26 16:44:04.300164] $GPRMC,202208.00,A,3819.24108,N,02707.26108,E,13.448,260.29,260424,,,A*54

[2024-04-26 16:44:05.300058] $GPRMC,202209.00,A,3819.24043,N,02707.25595,E,14.515,262.02,260424,,,A*5D

[2024-04-26 16:44:06.299337] $GPRMC,202210.00,A,3819.24018,N,02707.25084,E,14.372,264.41,260424,,,A*58

[2024-04-26 16:44:07.298999] $GPRMC,202211.00,A,3819.23969,N,02707.24530,E,15.737,264.67,260424,,,A*5A

[2024-04-26 16:44:08.299775] $GPRMC,202212.00,A,3819.23921,N,02707.23932,E,17.109,263.81,260424,,,A*5A

[2024-04-26 16:44:09.303036] $GPRMC,202213.00,A,3819.23831,N,02707.23271,E,17.399,264.84,260424,,,A*5E

[2024-04-26 16:44:10.299578] $GPRMC,202214.00,A,3819.23705,N,02707.22542,E,18.986,262.95,260424,,,A*5A

[2024-04-26 16:44:11.299466] $GPRMC,202215.00,A,3819.23621,N,02707.21847,E,19.386,261.45,260424,,,A*52

[2024-04-26 16:44:12.299835] $GPRMC,202216.00,A,3819.23544,N,02707.21144,E,19.517,262.45,260424,,,A*56

[2024-04-26 16:44:13.299999] $GPRMC,202217.00,A,3819.23474,N,02707.20451,E,19.461,263.41,260424,,,A*50

[2024-04-26 16:44:14.300882] $GPRMC,202218.00,A,3819.23392,N,02707.19778,E,18.678,263.13,260424,,,A*5E

[2024-04-26 16:44:15.299012] $GPRMC,202219.00,A,3819.23322,N,02707.19146,E,17.497,262.09,260424,,,A*59

[2024-04-26 16:44:16.299209] $GPRMC,202220.00,A,3819.23271,N,02707.18572,E,15.701,264.17,260424,,,A*51

[2024-04-26 16:44:17.299800] $GPRMC,202221.00,A,3819.23224,N,02707.18077,E,13.392,264.45,260424,,,A*5F

[2024-04-26 16:44:18.300950] $GPRMC,202222.00,A,3819.23349,N,02707.17688,E,11.270,277.05,260424,,,A*56

[2024-04-26 16:44:19.300085] $GPRMC,202223.00,A,3819.23641,N,02707.17433,E,10.261,311.54,260424,,,A*5C

[2024-04-26 16:44:20.299945] $GPRMC,202224.00,A,3819.23899,N,02707.17263,E,9.814,331.57,260424,,,A*62

[2024-04-26 16:44:21.300143] $GPRMC,202225.00,A,3819.24184,N,02707.17155,E,10.549,346.04,260424,,,A*5C

[2024-04-26 16:44:22.300253] $GPRMC,202226.00,A,3819.24511,N,02707.17117,E,11.670,354.12,260424,,,A*5D

[2024-04-26 16:44:23.301824] $GPRMC,202227.00,A,3819.24838,N,02707.17095,E,13.265,358.37,260424,,,A*58

[2024-04-26 16:44:24.301771] $GPRMC,202228.00,A,3819.25189,N,02707.17075,E,14.734,358.68,260424,,,A*57

[2024-04-26 16:44:25.301787] $GPRMC,202229.00,A,3819.25664,N,02707.17079,E,16.130,359.31,260424,,,A*53

[2024-04-26 16:44:26.303478] $GPRMC,202230.00,A,3819.26131,N,02707.17067,E,17.993,359.57,260424,,,A*50

[2024-04-26 16:44:27.303681] $GPRMC,202231.00,A,3819.26631,N,02707.17054,E,19.079,359.25,260424,,,A*50

[2024-04-26 16:44:28.300826] $GPRMC,202232.00,A,3819.27153,N,02707.17036,E,19.451,358.73,260424,,,A*59

[2024-04-26 16:44:29.301644] $GPRMC,202233.00,A,3819.27690,N,02707.17021,E,19.635,359.07,260424,,,A*54

[2024-04-26 16:44:30.301405] $GPRMC,202234.00,A,3819.28240,N,02707.17011,E,19.743,359.08,260424,,,A*59

[2024-04-26 16:44:31.300685] $GPRMC,202235.00,A,3819.28793,N,02707.17001,E,20.241,359.07,260424,,,A*50

[2024-04-26 16:44:32.301170] $GPRMC,202236.00,A,3819.29352,N,02707.16989,E,20.471,359.04,260424,,,A*55

[2024-04-26 16:44:33.299493] $GPRMC,202237.00,A,3819.29922,N,02707.16978,E,20.277,359.08,260424,,,A*5B

[2024-04-26 16:44:34.297669] $GPRMC,202238.00,A,3819.30492,N,02707.16975,E,19.985,359.33,260424,,,A*53

[2024-04-26 16:44:35.304502] $GPRMC,202239.00,A,3819.31051,N,02707.16968,E,20.187,359.35,260424,,,A*52

[2024-04-26 16:44:36.304799] $GPRMC,202240.00,A,3819.31605,N,02707.16962,E,20.012,359.50,260424,,,A*5F

[2024-04-26 16:44:37.298762] $GPRMC,202241.00,A,3819.32145,N,02707.16960,E,18.763,359.81,260424,,,A*5A

[2024-04-26 16:44:38.300436] $GPRMC,202242.00,A,3819.32614,N,02707.16952,E,16.095,359.88,260424,,,A*52

[2024-04-26 16:44:39.311428] $GPRMC,202243.00,A,3819.32989,N,02707.16951,E,13.582,0.01,260424,,,A*53

[2024-04-26 16:44:40.307439] $GPRMC,202244.00,A,3819.33305,N,02707.16947,E,10.599,0.23,260424,,,A*55

[2024-04-26 16:44:41.301412] $GPRMC,202245.00,A,3819.33555,N,02707.16943,E,8.595,0.15,260424,,,A*63

[2024-04-26 16:44:42.303801] $GPRMC,202246.00,A,3819.33779,N,02707.16936,E,7.748,359.23,260424,,,A*69

[2024-04-26 16:44:43.302505] $GPRMC,202247.00,A,3819.33997,N,02707.16929,E,7.723,359.09,260424,,,A*6D

[2024-04-26 16:44:44.305671] $GPRMC,202248.00,A,3819.34227,N,02707.16916,E,8.710,357.99,260424,,,A*61

[2024-04-26 16:44:45.300759] $GPRMC,202249.00,A,3819.34486,N,02707.16897,E,9.571,357.10,260424,,,A*60

[2024-04-26 16:44:46.301722] $GPRMC,202250.00,A,3819.34768,N,02707.16866,E,10.091,354.94,260424,,,A*59

[2024-04-26 16:44:47.301620] $GPRMC,202251.00,A,3819.35082,N,02707.16839,E,11.157,356.08,260424,,,A*5D

[2024-04-26 16:44:48.306609] $GPRMC,202252.00,A,3819.35412,N,02707.16820,E,12.191,356.67,260424,,,A*5B

[2024-04-26 16:44:49.305776] $GPRMC,202253.00,A,3819.35771,N,02707.16786,E,12.434,355.25,260424,,,A*50

[2024-04-26 16:44:50.301026] $GPRMC,202254.00,A,3819.36116,N,02707.16743,E,12.275,354.80,260424,,,A*57

[2024-04-26 16:44:51.314759] $GPRMC,202255.00,A,3819.36497,N,02707.16777,E,11.175,358.81,260424,,,A*50

[2024-04-26 16:44:52.306997] $GPRMC,202256.00,A,3819.36808,N,02707.16785,E,10.214,358.67,260424,,,A*59

[2024-04-26 16:44:53.305645] $GPRMC,202257.00,A,3819.37089,N,02707.16798,E,10.500,1.14,260424,,,A*5D

[2024-04-26 16:44:54.305649] $GPRMC,202258.00,A,3819.37397,N,02707.16830,E,10.856,4.10,260424,,,A*5C

[2024-04-26 16:44:55.304789] $GPRMC,202259.00,A,3819.37740,N,02707.16867,E,11.223,5.07,260424,,,A*5F

[2024-04-26 16:44:56.309745] $GPRMC,202300.00,A,3819.38095,N,02707.16905,E,11.831,4.55,260424,,,A*58

[2024-04-26 16:44:57.319869] $GPRMC,202301.00,A,3819.38334,N,02707.16927,E,13.202,2.95,260424,,,A*53

[2024-04-26 16:44:58.312089] $GPRMC,202302.00,A,3819.38658,N,02707.16932,E,12.931,1.30,260424,,,A*5D

[2024-04-26 16:44:59.308600] $GPRMC,202303.00,A,3819.38989,N,02707.16926,E,12.787,0.19,260424,,,A*53

[2024-04-26 16:45:00.308886] $GPRMC,202304.00,A,3819.39326,N,02707.16929,E,12.286,0.25,260424,,,A*5E

[2024-04-26 16:45:01.312909] $GPRMC,202305.00,A,3819.39628,N,02707.16931,E,10.612,1.26,260424,,,A*54

[2024-04-26 16:45:02.312562] $GPRMC,202306.00,A,3819.39853,N,02707.16936,E,7.811,2.72,260424,,,A*6B

[2024-04-26 16:45:03.308805] $GPRMC,202307.00,A,3819.40042,N,02707.16955,E,6.787,5.48,260424,,,A*66

[2024-04-26 16:45:04.308671] $GPRMC,202308.00,A,3819.40207,N,02707.17010,E,5.894,14.57,260424,,,A*53

[2024-04-26 16:45:05.308742] $GPRMC,202309.00,A,3819.40350,N,02707.17127,E,6.257,29.96,260424,,,A*51

[2024-04-26 16:45:06.312868] $GPRMC,202310.00,A,3819.40467,N,02707.17299,E,6.730,36.51,260424,,,A*5D

[2024-04-26 16:45:07.312569] $GPRMC,202311.00,A,3819.40505,N,02707.17555,E,7.753,64.47,260424,,,A*5A

[2024-04-26 16:45:08.308817] $GPRMC,202312.00,A,3819.40535,N,02707.17845,E,8.342,77.51,260424,,,A*58

[2024-04-26 16:45:09.312370] $GPRMC,202313.00,A,3819.40576,N,02707.18117,E,7.880,75.71,260424,,,A*55

[2024-04-26 16:45:10.312972] $GPRMC,202314.00,A,3819.40588,N,02707.18407,E,8.265,80.01,260424,,,A*54

[2024-04-26 16:45:11.312161] $GPRMC,202315.00,A,3819.40578,N,02707.18699,E,8.384,85.47,260424,,,A*56

[2024-04-26 16:45:12.312717] $GPRMC,202316.00,A,3819.40605,N,02707.19052,E,10.121,84.50,260424,,,A*6F

[2024-04-26 16:45:13.308141] $GPRMC,202317.00,A,3819.40654,N,02707.19421,E,10.427,81.90,260424,,,A*60

[2024-04-26 16:45:14.308199] $GPRMC,202318.00,A,3819.40712,N,02707.19796,E,10.587,80.19,260424,,,A*68

[2024-04-26 16:45:15.307891] $GPRMC,202319.00,A,3819.40796,N,02707.20156,E,10.430,75.24,260424,,,A*6C

[2024-04-26 16:45:16.308436] $GPRMC,202320.00,A,3819.40913,N,02707.20506,E,10.680,68.97,260424,,,A*69

[2024-04-26 16:45:17.307684] $GPRMC,202321.00,A,3819.41021,N,02707.20863,E,10.720,67.38,260424,,,A*6E

[2024-04-26 16:45:18.307905] $GPRMC,202322.00,A,3819.41158,N,02707.21231,E,11.412,65.55,260424,,,A*64

[2024-04-26 16:45:19.311378] $GPRMC,202323.00,A,3819.41277,N,02707.21607,E,11.716,67.01,260424,,,A*6E

[2024-04-26 16:45:20.311600] $GPRMC,202324.00,A,3819.41437,N,02707.22029,E,13.401,65.56,260424,,,A*65

[2024-04-26 16:45:21.310804] $GPRMC,202325.00,A,3819.41577,N,02707.22481,E,13.849,67.78,260424,,,A*69

[2024-04-26 16:45:22.311526] $GPRMC,202326.00,A,3819.41717,N,02707.22956,E,14.234,69.90,260424,,,A*66

[2024-04-26 16:45:23.307899] $GPRMC,202327.00,A,3819.41829,N,02707.23431,E,13.806,72.57,260424,,,A*65

[2024-04-26 16:45:24.307642] $GPRMC,202328.00,A,3819.41919,N,02707.23907,E,13.856,75.25,260424,,,A*67

[2024-04-26 16:45:25.307531] $GPRMC,202329.00,A,3819.41958,N,02707.24374,E,13.310,80.02,260424,,,A*6C

[2024-04-26 16:45:26.306975] $GPRMC,202330.00,A,3819.42008,N,02707.24845,E,13.336,81.28,260424,,,A*6F

[2024-04-26 16:45:27.306670] $GPRMC,202331.00,A,3819.42019,N,02707.25245,E,10.838,84.05,260424,,,A*69

[2024-04-26 16:45:28.312133] $GPRMC,202332.00,A,3819.42027,N,02707.25560,E,8.404,85.92,260424,,,A*52

[2024-04-26 16:45:29.311029] $GPRMC,202333.00,A,3819.41977,N,02707.25800,E,6.844,95.98,260424,,,A*5A

[2024-04-26 16:45:30.307244] $GPRMC,202334.00,A,3819.41905,N,02707.26043,E,7.705,105.41,260424,,,A*63

[2024-04-26 16:45:31.311352] $GPRMC,202335.00,A,3819.41848,N,02707.26293,E,7.925,111.66,260424,,,A*69

[2024-04-26 16:45:32.308099] $GPRMC,202336.00,A,3819.41756,N,02707.26550,E,8.430,118.27,260424,,,A*68

[2024-04-26 16:45:33.306627] $GPRMC,202337.00,A,3819.41627,N,02707.26796,E,8.309,122.58,260424,,,A*6A

[2024-04-26 16:45:34.309195] $GPRMC,202338.00,A,3819.41545,N,02707.27007,E,8.642,133.10,260424,,,A*6A

[2024-04-26 16:45:35.308085] $GPRMC,202339.00,A,3819.41461,N,02707.27225,E,8.806,135.68,260424,,,A*69

[2024-04-26 16:45:36.309292] $GPRMC,202340.00,A,3819.41323,N,02707.27445,E,8.921,136.51,260424,,,A*6B

[2024-04-26 16:45:37.312697] $GPRMC,202341.00,A,3819.41178,N,02707.27666,E,9.037,136.91,260424,,,A*66

[2024-04-26 16:45:38.313963] $GPRMC,202342.00,A,3819.41014,N,02707.27885,E,9.147,137.74,260424,,,A*61

[2024-04-26 16:45:39.314465] $GPRMC,202343.00,A,3819.40819,N,02707.28097,E,9.367,141.16,260424,,,A*65

[2024-04-26 16:45:40.313060] $GPRMC,202344.00,A,3819.40630,N,02707.28295,E,9.391,143.40,260424,,,A*6F

[2024-04-26 16:45:41.310705] $GPRMC,202345.00,A,3819.40433,N,02707.28476,E,9.229,145.38,260424,,,A*6F

[2024-04-26 16:45:42.309506] $GPRMC,202346.00,A,3819.40236,N,02707.28639,E,8.648,147.32,260424,,,A*6C

[2024-04-26 16:45:43.309090] $GPRMC,202347.00,A,3819.40006,N,02707.28757,E,8.497,155.42,260424,,,A*61

[2024-04-26 16:45:44.311759] $GPRMC,202348.00,A,3819.39829,N,02707.28831,E,5.981,159.51,260424,,,A*63

[2024-04-26 16:45:45.306613] $GPRMC,202349.00,A,3819.39649,N,02707.28829,E,6.838,180.36,260424,,,A*66

[2024-04-26 16:45:46.311419] $GPRMC,202350.00,A,3819.39482,N,02707.28780,E,7.316,190.42,260424,,,A*63

[2024-04-26 16:45:47.311699] $GPRMC,202351.00,A,3819.39302,N,02707.28684,E,6.625,200.80,260424,,,A*68

[2024-04-26 16:45:48.307612] $GPRMC,202352.00,A,3819.39124,N,02707.28561,E,6.657,205.85,260424,,,A*60

[2024-04-26 16:45:49.307665] $GPRMC,202353.00,A,3819.38954,N,02707.28455,E,6.130,208.19,260424,,,A*67

[2024-04-26 16:45:50.312034] $GPRMC,202354.00,A,3819.38805,N,02707.28359,E,5.245,207.51,260424,,,A*6F

[2024-04-26 16:45:51.313293] $GPRMC,202355.00,A,3819.38648,N,02707.28240,E,5.956,208.79,260424,,,A*6C

[2024-04-26 16:45:52.312483] $GPRMC,202356.00,A,3819.38476,N,02707.28121,E,7.044,210.23,260424,,,A*6A

[2024-04-26 16:45:53.308561] $GPRMC,202357.00,A,3819.38289,N,02707.27995,E,8.020,209.85,260424,,,A*6C

[2024-04-26 16:45:54.308390] $GPRMC,202358.00,A,3819.38080,N,02707.27868,E,8.209,205.80,260424,,,A*6B

[2024-04-26 16:45:55.308626] $GPRMC,202359.00,A,3819.37865,N,02707.27775,E,8.661,199.68,260424,,,A*6F

[2024-04-26 16:45:56.316949] $GPRMC,202400.00,A,3819.37627,N,02707.27725,E,9.908,191.26,260424,,,A*6A

[2024-04-26 16:45:57.310095] $GPRMC,202401.00,A,3819.37307,N,02707.27681,E,11.632,184.40,260424,,,A*58

[2024-04-26 16:45:58.308973] $GPRMC,202402.00,A,3819.36972,N,02707.27698,E,12.007,178.51,260424,,,A*5A

[2024-04-26 16:45:59.312706] $GPRMC,202403.00,A,3819.36636,N,02707.27732,E,12.619,176.22,260424,,,A*56

[2024-04-26 16:46:00.312611] $GPRMC,202404.00,A,3819.36308,N,02707.27777,E,12.111,174.85,260424,,,A*58

[2024-04-26 16:46:01.312233] $GPRMC,202405.00,A,3819.35950,N,02707.27801,E,11.720,176.27,260424,,,A*5E

[2024-04-26 16:46:02.310126] $GPRMC,202406.00,A,3819.35634,N,02707.27831,E,11.233,176.25,260424,,,A*56

[2024-04-26 16:46:03.309600] $GPRMC,202407.00,A,3819.35310,N,02707.27855,E,10.702,176.14,260424,,,A*52

[2024-04-26 16:46:04.309466] $GPRMC,202408.00,A,3819.35033,N,02707.27879,E,9.270,176.16,260424,,,A*6B

[2024-04-26 16:46:05.309929] $GPRMC,202409.00,A,3819.34835,N,02707.27896,E,6.460,176.41,260424,,,A*6E

[2024-04-26 16:46:06.308838] $GPRMC,202410.00,A,3819.34768,N,02707.27904,E,1.727,176.80,260424,,,A*61

[2024-04-26 16:46:07.308242] $GPRMC,202411.00,A,3819.34768,N,02707.27913,E,0.258,,260424,,,A*7C

[2024-04-26 16:46:08.312745] $GPRMC,202412.00,A,3819.34780,N,02707.27922,E,0.131,,260424,,,A*77

[2024-04-26 16:46:09.318354] $GPRMC,202413.00,A,3819.34784,N,02707.27929,E,0.010,,260424,,,A*7B

[2024-04-26 16:46:10.312560] $GPRMC,202414.00,A,3819.34760,N,02707.27932,E,0.246,,260424,,,A*7D

[2024-04-26 16:46:11.309612] $GPRMC,202415.00,A,3819.34744,N,02707.27937,E,0.183,,260424,,,A*75

[2024-04-26 16:46:12.308824] $GPRMC,202416.00,A,3819.34743,N,02707.27944,E,0.127,,260424,,,A*7B

[2024-04-26 16:46:13.308506] $GPRMC,202417.00,A,3819.34731,N,02707.27944,E,0.245,,260424,,,A*78

[2024-04-26 16:46:14.308982] $GPRMC,202418.00,A,3819.34727,N,02707.27943,E,0.192,,260424,,,A*7E

[2024-04-26 16:46:15.308508] $GPRMC,202419.00,A,3819.34732,N,02707.27946,E,0.161,,260424,,,A*72

[2024-04-26 16:46:16.305418] $GPRMC,202420.00,A,3819.34730,N,02707.27942,E,0.136,,260424,,,A*7C

[2024-04-26 16:46:17.308102] $GPRMC,202421.00,A,3819.34735,N,02707.27945,E,0.111,,260424,,,A*7A

[2024-04-26 16:46:18.309064] $GPRMC,202422.00,A,3819.34731,N,02707.27948,E,0.251,,260424,,,A*77

[2024-04-26 16:46:19.304982] $GPRMC,202423.00,A,3819.34719,N,02707.27956,E,0.401,,260424,,,A*70

[2024-04-26 16:46:20.312010] $GPRMC,202424.00,A,3819.34712,N,02707.27963,E,0.038,,260424,,,A*74

[2024-04-26 16:46:21.304953] $GPRMC,202425.00,A,3819.34730,N,02707.27977,E,0.037,,260424,,,A*7F

[2024-04-26 16:46:22.309063] $GPRMC,202426.00,A,3819.34736,N,02707.27983,E,0.152,,260424,,,A*73

[2024-04-26 16:46:23.307178] $GPRMC,202427.00,A,3819.34760,N,02707.27988,E,0.140,,260424,,,A*79

[2024-04-26 16:46:24.305845] $GPRMC,202428.00,A,3819.34776,N,02707.27994,E,0.043,,260424,,,A*7E

[2024-04-26 16:46:25.305195] $GPRMC,202429.00,A,3819.34795,N,02707.27998,E,0.104,,260424,,,A*7C

[2024-04-26 16:46:26.310159] $GPRMC,202430.00,A,3819.34816,N,02707.28002,E,0.061,,260424,,,A*77

[2024-04-26 16:46:27.328041] $GPRMC,202431.00,A,3819.34744,N,02707.27992,E,0.214,,260424,,,A*71

[2024-04-26 16:46:28.314663] $GPRMC,202432.00,A,3819.34674,N,02707.27983,E,0.176,,260424,,,A*77

[2024-04-26 16:46:29.314513] $GPRMC,202433.00,A,3819.34636,N,02707.27982,E,0.101,,260424,,,A*71

[2024-04-26 16:46:30.322741] $GPRMC,202434.00,A,3819.34600,N,02707.27980,E,0.078,,260424,,,A*7E

[2024-04-26 16:46:31.318230] $GPRMC,202435.00,A,3819.34549,N,02707.27973,E,0.179,,260424,,,A*7D

[2024-04-26 16:46:32.313558] $GPRMC,202436.00,A,3819.34533,N,02707.27971,E,0.184,,260424,,,A*73

[2024-04-26 16:46:33.314031] $GPRMC,202437.00,A,3819.34508,N,02707.27966,E,0.113,,260424,,,A*72

[2024-04-26 16:46:34.313532] $GPRMC,202438.00,A,3819.34448,N,02707.27955,E,0.018,,260424,,,A*72

[2024-04-26 16:46:35.314999] $GPRMC,202439.00,A,3819.34412,N,02707.27950,E,0.146,,260424,,,A*73

[2024-04-26 16:46:36.316292] $GPRMC,202440.00,A,3819.34379,N,02707.27945,E,0.256,,260424,,,A*71

[2024-04-26 16:46:37.312379] $GPRMC,202441.00,A,3819.34353,N,02707.27939,E,0.114,,260424,,,A*76

[2024-04-26 16:46:38.312660] $GPRMC,202442.00,A,3819.34330,N,02707.27937,E,0.060,,260424,,,A*7C

[2024-04-26 16:46:39.316338] $GPRMC,202443.00,A,3819.34314,N,02707.27938,E,0.018,,260424,,,A*7B

[2024-04-26 16:46:40.319082] $GPRMC,202444.00,A,3819.34289,N,02707.27936,E,0.064,,260424,,,A*7C

[2024-04-26 16:46:41.316378] $GPRMC,202445.00,A,3819.34266,N,02707.27936,E,0.094,,260424,,,A*73

[2024-04-26 16:46:42.313694] $GPRMC,202446.00,A,3819.34258,N,02707.27935,E,0.064,,260424,,,A*71

[2024-04-26 16:46:43.313235] $GPRMC,202447.00,A,3819.34231,N,02707.27935,E,0.028,,260424,,,A*77

[2024-04-26 16:46:44.316466] $GPRMC,202448.00,A,3819.34224,N,02707.27937,E,0.326,,260424,,,A*73

[2024-04-26 16:46:45.317270] $GPRMC,202449.00,A,3819.34223,N,02707.27941,E,0.231,,260424,,,A*73

[2024-04-26 16:46:46.315143] $GPRMC,202450.00,A,3819.34209,N,02707.27943,E,0.012,,260424,,,A*72

[2024-04-26 16:46:47.316091] $GPRMC,202451.00,A,3819.34182,N,02707.27948,E,0.288,,260424,,,A*79

[2024-04-26 16:46:48.319953] $GPRMC,202452.00,A,3819.34158,N,02707.27963,E,0.551,,260424,,,A*77

[2024-04-26 16:46:49.319676] $GPRMC,202453.00,A,3819.34143,N,02707.27990,E,1.505,170.00,260424,,,A*68

[2024-04-26 16:46:50.314749] $GPRMC,202454.00,A,3819.34107,N,02707.28043,E,2.985,156.29,260424,,,A*6F

[2024-04-26 16:46:51.316182] $GPRMC,202455.00,A,3819.34045,N,02707.28111,E,4.054,154.81,260424,,,A*6C

[2024-04-26 16:46:52.314668] $GPRMC,202456.00,A,3819.33930,N,02707.28171,E,5.028,159.98,260424,,,A*6A

[2024-04-26 16:46:53.314192] $GPRMC,202457.00,A,3819.33770,N,02707.28221,E,6.451,167.57,260424,,,A*60

[2024-04-26 16:46:54.314784] $GPRMC,202458.00,A,3819.33587,N,02707.28272,E,7.301,171.00,260424,,,A*65

[2024-04-26 16:46:55.313510] $GPRMC,202459.00,A,3819.33355,N,02707.28301,E,8.178,173.75,260424,,,A*6B

[2024-04-26 16:46:56.320792] $GPRMC,202500.00,A,3819.33109,N,02707.28327,E,8.822,174.78,260424,,,A*65

[2024-04-26 16:46:57.314684] $GPRMC,202501.00,A,3819.32846,N,02707.28356,E,9.551,174.35,260424,,,A*60

[2024-04-26 16:46:58.315718] $GPRMC,202502.00,A,3819.32556,N,02707.28385,E,10.521,175.28,260424,,,A*53

[2024-04-26 16:46:59.315382] $GPRMC,202503.00,A,3819.32283,N,02707.28431,E,10.895,174.37,260424,,,A*58

[2024-04-26 16:47:00.312491] $GPRMC,202504.00,A,3819.31955,N,02707.28460,E,11.631,175.94,260424,,,A*51

[2024-04-26 16:47:01.313452] $GPRMC,202505.00,A,3819.31608,N,02707.28482,E,12.584,177.76,260424,,,A*5B

[2024-04-26 16:47:02.313742] $GPRMC,202506.00,A,3819.31234,N,02707.28499,E,13.544,178.14,260424,,,A*5F

[2024-04-26 16:47:03.315471] $GPRMC,202507.00,A,3819.30849,N,02707.28521,E,13.828,176.95,260424,,,A*5D

[2024-04-26 16:47:04.316477] $GPRMC,202508.00,A,3819.30447,N,02707.28550,E,14.411,176.88,260424,,,A*5B

[2024-04-26 16:47:05.315476] $GPRMC,202509.00,A,3819.30047,N,02707.28575,E,15.226,178.31,260424,,,A*56

[2024-04-26 16:47:06.313779] $GPRMC,202510.00,A,3819.29626,N,02707.28602,E,15.780,177.85,260424,,,A*5D

[2024-04-26 16:47:07.310942] $GPRMC,202511.00,A,3819.29193,N,02707.28628,E,16.030,177.80,260424,,,A*57

[2024-04-26 16:47:08.312634] $GPRMC,202512.00,A,3819.28772,N,02707.28658,E,15.425,177.47,260424,,,A*53

[2024-04-26 16:47:09.321966] $GPRMC,202513.00,A,3819.28353,N,02707.28679,E,15.084,178.14,260424,,,A*50

[2024-04-26 16:47:10.322131] $GPRMC,202514.00,A,3819.27940,N,02707.28698,E,14.875,178.29,260424,,,A*56

[2024-04-26 16:47:11.317023] $GPRMC,202515.00,A,3819.27546,N,02707.28716,E,14.463,178.36,260424,,,A*5F

[2024-04-26 16:47:12.322554] $GPRMC,202516.00,A,3819.27144,N,02707.28727,E,14.267,178.68,260424,,,A*51

[2024-04-26 16:47:13.323464] $GPRMC,202517.00,A,3819.26763,N,02707.28734,E,13.404,178.99,260424,,,A*5A

[2024-04-26 16:47:14.317169] $GPRMC,202518.00,A,3819.26442,N,02707.28746,E,11.872,178.76,260424,,,A*5E

[2024-04-26 16:47:15.315757] $GPRMC,202519.00,A,3819.26191,N,02707.28715,E,10.018,184.16,260424,,,A*52

[2024-04-26 16:47:16.317496] $GPRMC,202520.00,A,3819.25943,N,02707.28662,E,9.647,188.39,260424,,,A*68

[2024-04-26 16:47:17.317588] $GPRMC,202521.00,A,3819.25689,N,02707.28602,E,8.925,187.35,260424,,,A*6F

[2024-04-26 16:47:18.317148] $GPRMC,202522.00,A,3819.25449,N,02707.28549,E,8.584,187.24,260424,,,A*69

[2024-04-26 16:47:19.316001] $GPRMC,202523.00,A,3819.25241,N,02707.28505,E,7.509,185.85,260424,,,A*6D

[2024-04-26 16:47:20.315996] $GPRMC,202524.00,A,3819.25035,N,02707.28465,E,7.332,188.05,260424,,,A*67

[2024-04-26 16:47:21.315263] $GPRMC,202525.00,A,3819.24850,N,02707.28405,E,6.618,192.90,260424,,,A*61

[2024-04-26 16:47:22.315719] $GPRMC,202526.00,A,3819.24680,N,02707.28318,E,6.135,200.60,260424,,,A*65

[2024-04-26 16:47:23.315620] $GPRMC,202527.00,A,3819.24535,N,02707.28196,E,5.945,208.07,260424,,,A*68

[2024-04-26 16:47:24.316075] $GPRMC,202528.00,A,3819.24423,N,02707.28030,E,6.228,223.61,260424,,,A*66

[2024-04-26 16:47:25.315131] $GPRMC,202529.00,A,3819.24337,N,02707.27825,E,6.606,231.48,260424,,,A*66

[2024-04-26 16:47:26.315253] $GPRMC,202530.00,A,3819.24222,N,02707.27561,E,7.543,242.37,260424,,,A*69

[2024-04-26 16:47:27.322584] $GPRMC,202531.00,A,3819.24143,N,02707.27271,E,8.242,248.52,260424,,,A*6A

[2024-04-26 16:47:28.315838] $GPRMC,202532.00,A,3819.24070,N,02707.26962,E,8.999,252.30,260424,,,A*62

[2024-04-26 16:47:29.315391] $GPRMC,202533.00,A,3819.24007,N,02707.26614,E,10.159,258.21,260424,,,A*5A

[2024-04-26 16:47:30.315223] $GPRMC,202534.00,A,3819.23951,N,02707.26210,E,11.670,261.11,260424,,,A*54

[2024-04-26 16:47:31.315316] $GPRMC,202535.00,A,3819.23889,N,02707.25754,E,13.147,262.38,260424,,,A*5E

[2024-04-26 16:47:32.314723] $GPRMC,202536.00,A,3819.23831,N,02707.25239,E,14.768,263.65,260424,,,A*55

[2024-04-26 16:47:33.316070] $GPRMC,202537.00,A,3819.23785,N,02707.24678,E,15.892,263.19,260424,,,A*54

[2024-04-26 16:47:34.315434] $GPRMC,202538.00,A,3819.23735,N,02707.24086,E,17.044,263.15,260424,,,A*5A

[2024-04-26 16:47:35.315554] $GPRMC,202539.00,A,3819.23668,N,02707.23451,E,18.151,263.21,260424,,,A*56

[2024-04-26 16:47:36.311577] $GPRMC,202540.00,A,3819.23590,N,02707.22777,E,19.098,262.92,260424,,,A*56

[2024-04-26 16:47:37.313166] $GPRMC,202541.00,A,3819.23553,N,02707.22080,E,19.805,264.60,260424,,,A*50

[2024-04-26 16:47:38.315129] $GPRMC,202542.00,A,3819.23511,N,02707.21394,E,19.152,264.27,260424,,,A*58

[2024-04-26 16:47:39.322991] $GPRMC,202543.00,A,3819.23464,N,02707.20745,E,17.848,264.20,260424,,,A*58

[2024-04-26 16:47:40.318607] $GPRMC,202544.00,A,3819.23415,N,02707.20141,E,16.499,264.69,260424,,,A*57

[2024-04-26 16:47:41.315282] $GPRMC,202545.00,A,3819.23380,N,02707.19598,E,14.786,264.86,260424,,,A*59

[2024-04-26 16:47:42.314881] $GPRMC,202546.00,A,3819.23369,N,02707.19084,E,13.538,265.10,260424,,,A*5B

[2024-04-26 16:47:43.317278] $GPRMC,202547.00,A,3819.23360,N,02707.18617,E,12.282,266.07,260424,,,A*5C

[2024-04-26 16:47:44.323948] $GPRMC,202548.00,A,3819.23377,N,02707.18206,E,11.070,270.41,260424,,,A*58

[2024-04-26 16:47:45.316404] $GPRMC,202549.00,A,3819.23433,N,02707.17864,E,9.634,284.34,260424,,,A*69

[2024-04-26 16:47:46.315973] $GPRMC,202550.00,A,3819.23555,N,02707.17579,E,8.864,298.82,260424,,,A*6B

[2024-04-26 16:47:47.312521] $GPRMC,202551.00,A,3819.23723,N,02707.17367,E,8.466,316.99,260424,,,A*63

[2024-04-26 16:47:48.315136] $GPRMC,202552.00,A,3819.23955,N,02707.17220,E,9.291,334.50,260424,,,A*67

[2024-04-26 16:47:49.315573] $GPRMC,202553.00,A,3819.24225,N,02707.17133,E,10.478,348.60,260424,,,A*5D

[2024-04-26 16:47:50.314490] $GPRMC,202554.00,A,3819.24544,N,02707.17090,E,11.977,356.04,260424,,,A*5C

[2024-04-26 16:47:51.316150] $GPRMC,202555.00,A,3819.24895,N,02707.17077,E,13.650,358.83,260424,,,A*5C

[2024-04-26 16:47:52.319853] $GPRMC,202556.00,A,3819.25275,N,02707.17061,E,14.713,358.58,260424,,,A*5A

[2024-04-26 16:47:53.315854] $GPRMC,202557.00,A,3819.25713,N,02707.17061,E,16.321,359.91,260424,,,A*5D

[2024-04-26 16:47:54.316043] $GPRMC,202558.00,A,3819.26203,N,02707.17071,E,17.972,0.19,260424,,,A*56

[2024-04-26 16:47:55.319623] $GPRMC,202559.00,A,3819.26737,N,02707.17072,E,19.542,359.71,260424,,,A*56

[2024-04-26 16:47:56.324020] $GPRMC,202600.00,A,3819.27302,N,02707.17073,E,20.981,359.55,260424,,,A*54

[2024-04-26 16:47:57.316912] $GPRMC,202601.00,A,3819.27898,N,02707.17069,E,21.969,359.52,260424,,,A*56

[2024-04-26 16:47:58.316721] $GPRMC,202602.00,A,3819.28526,N,02707.17066,E,23.002,359.48,260424,,,A*50

[2024-04-26 16:47:59.314246] $GPRMC,202603.00,A,3819.29185,N,02707.17061,E,24.170,359.57,260424,,,A*57

[2024-04-26 16:48:00.315211] $GPRMC,202604.00,A,3819.29854,N,02707.17053,E,24.200,359.28,260424,,,A*58

[2024-04-26 16:48:01.317498] $GPRMC,202605.00,A,3819.30512,N,02707.17042,E,23.562,359.06,260424,,,A*56

[2024-04-26 16:48:02.321769] $GPRMC,202606.00,A,3819.31145,N,02707.17023,E,22.830,358.83,260424,,,A*52

[2024-04-26 16:48:03.325613] $GPRMC,202607.00,A,3819.31763,N,02707.17016,E,21.728,359.33,260424,,,A*58

[2024-04-26 16:48:04.318964] $GPRMC,202608.00,A,3819.32317,N,02707.17007,E,19.158,359.31,260424,,,A*5B

[2024-04-26 16:48:05.317367] $GPRMC,202609.00,A,3819.32783,N,02707.16997,E,15.972,359.43,260424,,,A*5B

[2024-04-26 16:48:06.316542] $GPRMC,202610.00,A,3819.33165,N,02707.16990,E,12.857,359.27,260424,,,A*58

[2024-04-26 16:48:07.316085] $GPRMC,202611.00,A,3819.33476,N,02707.16986,E,10.463,358.92,260424,,,A*5F

[2024-04-26 16:48:08.316175] $GPRMC,202612.00,A,3819.33756,N,02707.16979,E,9.895,359.06,260424,,,A*6C

[2024-04-26 16:48:09.316324] $GPRMC,202613.00,A,3819.34041,N,02707.16977,E,10.125,359.47,260424,,,A*5A

[2024-04-26 16:48:10.320192] $GPRMC,202614.00,A,3819.34338,N,02707.16975,E,10.781,359.38,260424,,,A*52

[2024-04-26 16:48:11.319026] $GPRMC,202615.00,A,3819.34634,N,02707.16970,E,10.793,359.64,260424,,,A*55

[2024-04-26 16:48:12.315832] $GPRMC,202616.00,A,3819.34935,N,02707.16967,E,10.992,359.91,260424,,,A*5B

[2024-04-26 16:48:13.315616] $GPRMC,202617.00,A,3819.35237,N,02707.16956,E,11.124,358.99,260424,,,A*5D

[2024-04-26 16:48:14.321609] $GPRMC,202618.00,A,3819.35542,N,02707.16944,E,11.166,359.30,260424,,,A*50

[2024-04-26 16:48:15.321762] $GPRMC,202619.00,A,3819.35852,N,02707.16933,E,11.370,358.95,260424,,,A*56

[2024-04-26 16:48:16.319041] $GPRMC,202620.00,A,3819.36164,N,02707.16918,E,11.555,358.94,260424,,,A*5A

[2024-04-26 16:48:17.316044] $GPRMC,202621.00,A,3819.36485,N,02707.16906,E,11.929,359.34,260424,,,A*52

[2024-04-26 16:48:18.318057] $GPRMC,202622.00,A,3819.36817,N,02707.16898,E,12.341,359.60,260424,,,A*56

[2024-04-26 16:48:19.316234] $GPRMC,202623.00,A,3819.37161,N,02707.16892,E,12.613,359.99,260424,,,A*50

[2024-04-26 16:48:20.318277] $GPRMC,202624.00,A,3819.37511,N,02707.16886,E,12.701,359.66,260424,,,A*53

[2024-04-26 16:48:21.317649] $GPRMC,202625.00,A,3819.37854,N,02707.16881,E,12.457,0.10,260424,,,A*57

[2024-04-26 16:48:22.318214] $GPRMC,202626.00,A,3819.38191,N,02707.16876,E,12.110,359.88,260424,,,A*5B

[2024-04-26 16:48:23.318181] $GPRMC,202627.00,A,3819.38529,N,02707.16870,E,12.184,359.28,260424,,,A*5C

[2024-04-26 16:48:24.317086] $GPRMC,202628.00,A,3819.38862,N,02707.16855,E,12.178,358.78,260424,,,A*51

[2024-04-26 16:48:25.316829] $GPRMC,202629.00,A,3819.39206,N,02707.16844,E,12.505,359.14,260424,,,A*5C

[2024-04-26 16:48:26.317156] $GPRMC,202630.00,A,3819.39557,N,02707.16836,E,12.689,359.07,260424,,,A*57

[2024-04-26 16:48:27.322024] $GPRMC,202631.00,A,3819.39895,N,02707.16829,E,11.937,359.12,260424,,,A*56

[2024-04-26 16:48:28.320197] $GPRMC,202632.00,A,3819.40224,N,02707.16827,E,11.812,0.03,260424,,,A*5C

[2024-04-26 16:48:29.316702] $GPRMC,202633.00,A,3819.40552,N,02707.16822,E,12.003,0.55,260424,,,A*56

[2024-04-26 16:48:30.315321] $GPRMC,202634.00,A,3819.40918,N,02707.16832,E,13.090,0.76,260424,,,A*58

[2024-04-26 16:48:31.314216] $GPRMC,202635.00,A,3819.41314,N,02707.16834,E,14.345,0.40,260424,,,A*51

[2024-04-26 16:48:32.324509] $GPRMC,202636.00,A,3819.41745,N,02707.16834,E,15.545,359.83,260424,,,A*55

[2024-04-26 16:48:33.321889] $GPRMC,202637.00,A,3819.42206,N,02707.16827,E,16.782,359.23,260424,,,A*57

[2024-04-26 16:48:34.317356] $GPRMC,202638.00,A,3819.42692,N,02707.16810,E,17.962,358.95,260424,,,A*58

[2024-04-26 16:48:35.315826] $GPRMC,202639.00,A,3819.43201,N,02707.16799,E,18.549,359.24,260424,,,A*59

[2024-04-26 16:48:36.316863] $GPRMC,202640.00,A,3819.43713,N,02707.16786,E,18.403,358.29,260424,,,A*5C

[2024-04-26 16:48:37.316104] $GPRMC,202641.00,A,3819.44207,N,02707.16753,E,17.972,357.33,260424,,,A*52

[2024-04-26 16:48:38.313096] $GPRMC,202642.00,A,3819.44715,N,02707.16729,E,18.229,357.45,260424,,,A*51

[2024-04-26 16:48:39.316037] $GPRMC,202643.00,A,3819.45239,N,02707.16708,E,18.853,357.94,260424,,,A*52

[2024-04-26 16:48:40.315847] $GPRMC,202644.00,A,3819.45782,N,02707.16681,E,19.716,356.99,260424,,,A*53

[2024-04-26 16:48:41.315049] $GPRMC,202645.00,A,3819.46331,N,02707.16642,E,19.901,356.78,260424,,,A*55

[2024-04-26 16:48:42.316019] $GPRMC,202646.00,A,3819.46863,N,02707.16608,E,18.481,356.98,260424,,,A*5E

[2024-04-26 16:48:43.317360] $GPRMC,202647.00,A,3819.47342,N,02707.16581,E,16.287,356.97,260424,,,A*55

[2024-04-26 16:48:44.325503] $GPRMC,202648.00,A,3819.47785,N,02707.16559,E,15.128,356.84,260424,,,A*57

[2024-04-26 16:48:45.319474] $GPRMC,202649.00,A,3819.48217,N,02707.16531,E,15.306,356.41,260424,,,A*5E

[2024-04-26 16:48:46.316635] $GPRMC,202650.00,A,3819.48644,N,02707.16496,E,15.213,356.34,260424,,,A*5F

[2024-04-26 16:48:47.322033] $GPRMC,202651.00,A,3819.49074,N,02707.16443,E,15.341,354.00,260424,,,A*51

[2024-04-26 16:48:48.317688] $GPRMC,202652.00,A,3819.49520,N,02707.16360,E,16.249,351.81,260424,,,A*56

[2024-04-26 16:48:49.317189] $GPRMC,202653.00,A,3819.49990,N,02707.16256,E,17.206,350.17,260424,,,A*50

[2024-04-26 16:48:50.317238] $GPRMC,202654.00,A,3819.50492,N,02707.16142,E,17.961,348.56,260424,,,A*50

[2024-04-26 16:48:51.319017] $GPRMC,202655.00,A,3819.51001,N,02707.16029,E,17.833,348.07,260424,,,A*50

[2024-04-26 16:48:52.317524] $GPRMC,202656.00,A,3819.51456,N,02707.15918,E,15.463,347.13,260424,,,A*5C

[2024-04-26 16:48:53.322432] $GPRMC,202657.00,A,3819.51865,N,02707.15805,E,14.465,345.18,260424,,,A*52

[2024-04-26 16:48:54.319693] $GPRMC,202658.00,A,3819.52252,N,02707.15674,E,14.262,343.01,260424,,,A*57

[2024-04-26 16:48:55.324530] $GPRMC,202659.00,A,3819.52644,N,02707.15521,E,14.720,341.19,260424,,,A*5E

[2024-04-26 16:48:56.326254] $GPRMC,202700.00,A,3819.53057,N,02707.15355,E,15.782,340.86,260424,,,A*5D

[2024-04-26 16:48:57.327583] $GPRMC,202701.00,A,3819.53498,N,02707.15163,E,16.918,339.07,260424,,,A*55

[2024-04-26 16:48:58.323715] $GPRMC,202702.00,A,3819.53953,N,02707.14935,E,17.778,337.06,260424,,,A*50

[2024-04-26 16:48:59.317553] $GPRMC,202703.00,A,3819.54404,N,02707.14685,E,17.500,335.41,260424,,,A*51

[2024-04-26 16:49:00.318864] $GPRMC,202704.00,A,3819.54835,N,02707.14424,E,16.936,333.82,260424,,,A*50

[2024-04-26 16:49:01.322480] $GPRMC,202705.00,A,3819.55248,N,02707.14158,E,16.563,333.34,260424,,,A*5F

[2024-04-26 16:49:02.322728] $GPRMC,202706.00,A,3819.55657,N,02707.13892,E,16.447,333.09,260424,,,A*57

[2024-04-26 16:49:03.325723] $GPRMC,202707.00,A,3819.56071,N,02707.13622,E,16.938,333.23,260424,,,A*5F

[2024-04-26 16:49:04.321855] $GPRMC,202708.00,A,3819.56497,N,02707.13339,E,17.490,333.14,260424,,,A*59

[2024-04-26 16:49:05.316467] $GPRMC,202709.00,A,3819.56946,N,02707.13041,E,18.435,333.51,260424,,,A*54

[2024-04-26 16:49:06.316909] $GPRMC,202710.00,A,3819.57418,N,02707.12735,E,19.021,333.25,260424,,,A*5D

[2024-04-26 16:49:07.318413] $GPRMC,202711.00,A,3819.57906,N,02707.12421,E,19.971,333.87,260424,,,A*5C

[2024-04-26 16:49:08.317357] $GPRMC,202712.00,A,3819.58401,N,02707.12101,E,19.974,333.18,260424,,,A*5E

[2024-04-26 16:49:09.318818] $GPRMC,202713.00,A,3819.58905,N,02707.11771,E,20.334,333.28,260424,,,A*53

[2024-04-26 16:49:10.318797] $GPRMC,202714.00,A,3819.59394,N,02707.11438,E,20.370,332.50,260424,,,A*57

[2024-04-26 16:49:11.317398] $GPRMC,202715.00,A,3819.59889,N,02707.11106,E,20.036,332.74,260424,,,A*5E

[2024-04-26 16:49:12.313703] $GPRMC,202716.00,A,3819.60388,N,02707.10785,E,19.972,332.97,260424,,,A*5F

[2024-04-26 16:49:13.314686] $GPRMC,202717.00,A,3819.60888,N,02707.10477,E,19.532,334.41,260424,,,A*5E

[2024-04-26 16:49:14.319868] $GPRMC,202718.00,A,3819.61408,N,02707.10217,E,19.543,338.34,260424,,,A*5C

[2024-04-26 16:49:15.320063] $GPRMC,202719.00,A,3819.61909,N,02707.10015,E,19.264,343.69,260424,,,A*57

[2024-04-26 16:49:16.324465] $GPRMC,202720.00,A,3819.62413,N,02707.09889,E,18.065,349.69,260424,,,A*55

[2024-04-26 16:49:17.316282] $GPRMC,202721.00,A,3819.62881,N,02707.09783,E,17.209,352.59,260424,,,A*58

[2024-04-26 16:49:18.317092] $GPRMC,202722.00,A,3819.63294,N,02707.09667,E,15.179,350.43,260424,,,A*50

[2024-04-26 16:49:19.317217] $GPRMC,202723.00,A,3819.63653,N,02707.09559,E,12.509,349.25,260424,,,A*5C

[2024-04-26 16:49:20.319082] $GPRMC,202724.00,A,3819.63947,N,02707.09472,E,10.590,350.00,260424,,,A*54

[2024-04-26 16:49:21.314807] $GPRMC,202725.00,A,3819.64212,N,02707.09413,E,8.947,351.20,260424,,,A*62

[2024-04-26 16:49:22.316569] $GPRMC,202726.00,A,3819.64456,N,02707.09385,E,8.818,353.33,260424,,,A*64

[2024-04-26 16:49:23.321780] $GPRMC,202727.00,A,3819.64713,N,02707.09355,E,8.796,353.10,260424,,,A*62

[2024-04-26 16:49:24.319619] $GPRMC,202728.00,A,3819.64983,N,02707.09333,E,9.216,354.28,260424,,,A*6A

[2024-04-26 16:49:25.321042] $GPRMC,202729.00,A,3819.65244,N,02707.09310,E,8.889,354.81,260424,,,A*65

[2024-04-26 16:49:26.321854] $GPRMC,202730.00,A,3819.65519,N,02707.09292,E,9.441,354.11,260424,,,A*69

[2024-04-26 16:49:27.318056] $GPRMC,202731.00,A,3819.65839,N,02707.09260,E,10.150,352.02,260424,,,A*53

[2024-04-26 16:49:28.324224] $GPRMC,202732.00,A,3819.66126,N,02707.09186,E,11.053,349.12,260424,,,A*57

[2024-04-26 16:49:29.318879] $GPRMC,202733.00,A,3819.66444,N,02707.09095,E,11.779,346.07,260424,,,A*50

[2024-04-26 16:49:30.319639] $GPRMC,202734.00,A,3819.66768,N,02707.08961,E,12.383,341.06,260424,,,A*5D

[2024-04-26 16:49:31.318896] $GPRMC,202735.00,A,3819.67088,N,02707.08769,E,12.948,334.72,260424,,,A*5E

[2024-04-26 16:49:32.323276] $GPRMC,202736.00,A,3819.67411,N,02707.08535,E,13.605,330.81,260424,,,A*5D

[2024-04-26 16:49:33.321854] $GPRMC,202737.00,A,3819.67757,N,02707.08280,E,14.479,329.16,260424,,,A*5C

[2024-04-26 16:49:34.318235] $GPRMC,202738.00,A,3819.68127,N,02707.08013,E,15.094,328.24,260424,,,A*53

[2024-04-26 16:49:35.320387] $GPRMC,202739.00,A,3819.68489,N,02707.07727,E,15.599,326.80,260424,,,A*54

[2024-04-26 16:49:36.321912] $GPRMC,202740.00,A,3819.68842,N,02707.07440,E,14.946,325.68,260424,,,A*59

[2024-04-26 16:49:37.319163] $GPRMC,202741.00,A,3819.69188,N,02707.07169,E,14.450,326.81,260424,,,A*56

[2024-04-26 16:49:38.319314] $GPRMC,202742.00,A,3819.69509,N,02707.06908,E,13.647,326.24,260424,,,A*5A

[2024-04-26 16:49:39.326148] $GPRMC,202743.00,A,3819.69810,N,02707.06651,E,13.723,327.84,260424,,,A*55

[2024-04-26 16:49:40.321325] $GPRMC,202744.00,A,3819.70095,N,02707.06403,E,12.941,327.60,260424,,,A*5B

[2024-04-26 16:49:41.324335] $GPRMC,202745.00,A,3819.70389,N,02707.06191,E,11.125,328.86,260424,,,A*54

[2024-04-26 16:49:42.325021] $GPRMC,202746.00,A,3819.70559,N,02707.06024,E,7.660,329.19,260424,,,A*65

[2024-04-26 16:49:43.320025] $GPRMC,202747.00,A,3819.70697,N,02707.05903,E,5.719,326.55,260424,,,A*60

[2024-04-26 16:49:44.324900] $GPRMC,202748.00,A,3819.70823,N,02707.05782,E,5.456,320.39,260424,,,A*6D

[2024-04-26 16:49:45.322080] $GPRMC,202749.00,A,3819.70924,N,02707.05637,E,5.343,314.06,260424,,,A*6D

[2024-04-26 16:49:46.320311] $GPRMC,202750.00,A,3819.70984,N,02707.05493,E,4.484,306.64,260424,,,A*69

[2024-04-26 16:49:47.319470] $GPRMC,202751.00,A,3819.71043,N,02707.05338,E,4.924,296.88,260424,,,A*60

[2024-04-26 16:49:48.319373] $GPRMC,202752.00,A,3819.71102,N,02707.05162,E,5.204,288.49,260424,,,A*60

[2024-04-26 16:49:49.319053] $GPRMC,202753.00,A,3819.71186,N,02707.04999,E,5.291,283.26,260424,,,A*6E

[2024-04-26 16:49:50.323479] $GPRMC,202754.00,A,3819.71189,N,02707.04851,E,4.838,273.65,260424,,,A*63

[2024-04-26 16:49:51.325824] $GPRMC,202755.00,A,3819.71173,N,02707.04714,E,4.285,265.21,260424,,,A*62

[2024-04-26 16:49:52.315596] $GPRMC,202756.00,A,3819.71144,N,02707.04584,E,4.028,256.82,260424,,,A*62

[2024-04-26 16:49:53.315543] $GPRMC,202757.00,A,3819.71099,N,02707.04480,E,3.880,249.40,260424,,,A*6A

[2024-04-26 16:49:54.321472] $GPRMC,202758.00,A,3819.71021,N,02707.04370,E,4.092,244.69,260424,,,A*64

[2024-04-26 16:49:55.324596] $GPRMC,202759.00,A,3819.70939,N,02707.04244,E,4.779,240.34,260424,,,A*6C

[2024-04-26 16:49:56.324264] $GPRMC,202800.00,A,3819.70861,N,02707.04104,E,4.860,239.12,260424,,,A*69

[2024-04-26 16:49:57.319308] $GPRMC,202801.00,A,3819.70793,N,02707.03948,E,5.784,238.58,260424,,,A*66

[2024-04-26 16:49:58.316031] $GPRMC,202802.00,A,3819.70727,N,02707.03783,E,5.911,238.48,260424,,,A*60

[2024-04-26 16:49:59.317614] $GPRMC,202803.00,A,3819.70675,N,02707.03610,E,5.772,242.88,260424,,,A*66

[2024-04-26 16:50:00.319571] $GPRMC,202804.00,A,3819.70627,N,02707.03426,E,5.710,247.30,260424,,,A*63

[2024-04-26 16:50:01.314665] $GPRMC,202805.00,A,3819.70592,N,02707.03219,E,6.457,249.67,260424,,,A*6A

[2024-04-26 16:50:02.316872] $GPRMC,202806.00,A,3819.70480,N,02707.03043,E,6.374,241.07,260424,,,A*6E

[2024-04-26 16:50:03.322349] $GPRMC,202807.00,A,3819.70374,N,02707.02830,E,7.064,240.61,260424,,,A*6C

[2024-04-26 16:50:04.317279] $GPRMC,202808.00,A,3819.70231,N,02707.02619,E,7.266,240.66,260424,,,A*61

[2024-04-26 16:50:05.318650] $GPRMC,202809.00,A,3819.70075,N,02707.02404,E,7.455,238.59,260424,,,A*69

[2024-04-26 16:50:06.320456] $GPRMC,202810.00,A,3819.69980,N,02707.02170,E,7.711,237.54,260424,,,A*6D

[2024-04-26 16:50:07.317257] $GPRMC,202811.00,A,3819.69884,N,02707.01937,E,7.826,236.09,260424,,,A*63

[2024-04-26 16:50:08.317641] $GPRMC,202812.00,A,3819.69762,N,02707.01699,E,7.830,236.31,260424,,,A*60

[2024-04-26 16:50:09.320642] $GPRMC,202813.00,A,3819.69687,N,02707.01445,E,7.682,241.14,260424,,,A*68

[2024-04-26 16:50:10.315853] $GPRMC,202814.00,A,3819.69631,N,02707.01202,E,7.523,247.93,260424,,,A*66

[2024-04-26 16:50:11.316678] $GPRMC,202815.00,A,3819.69540,N,02707.00964,E,7.971,248.27,260424,,,A*63

[2024-04-26 16:50:12.322476] $GPRMC,202816.00,A,3819.69455,N,02707.00764,E,6.262,252.09,260424,,,A*64

[2024-04-26 16:50:13.317165] $GPRMC,202817.00,A,3819.69317,N,02707.00530,E,7.726,242.05,260424,,,A*6E

[2024-04-26 16:50:14.314609] $GPRMC,202818.00,A,3819.69209,N,02707.00284,E,7.773,241.45,260424,,,A*60

[2024-04-26 16:50:15.313731] $GPRMC,202819.00,A,3819.69092,N,02707.00029,E,8.268,239.37,260424,,,A*6E

[2024-04-26 16:50:16.318197] $GPRMC,202820.00,A,3819.68973,N,02706.99750,E,8.510,237.93,260424,,,A*63

[2024-04-26 16:50:17.318843] $GPRMC,202821.00,A,3819.68801,N,02706.99476,E,8.837,237.13,260424,,,A*61

[2024-04-26 16:50:18.322302] $GPRMC,202822.00,A,3819.68614,N,02706.99207,E,8.757,239.42,260424,,,A*6B

[2024-04-26 16:50:19.317504] $GPRMC,202823.00,A,3819.68475,N,02706.98932,E,9.170,238.32,260424,,,A*67

[2024-04-26 16:50:20.318425] $GPRMC,202824.00,A,3819.68323,N,02706.98654,E,9.483,236.44,260424,,,A*6D

[2024-04-26 16:50:21.316583] $GPRMC,202825.00,A,3819.68173,N,02706.98352,E,9.494,238.76,260424,,,A*61

[2024-04-26 16:50:22.323064] $GPRMC,202826.00,A,3819.68046,N,02706.98053,E,9.415,239.90,260424,,,A*67

[2024-04-26 16:50:23.317672] $GPRMC,202827.00,A,3819.67936,N,02706.97776,E,8.691,237.65,260424,,,A*63

[2024-04-26 16:50:24.319820] $GPRMC,202828.00,A,3819.67831,N,02706.97535,E,7.402,237.33,260424,,,A*6B

[2024-04-26 16:50:25.325893] $GPRMC,202829.00,A,3819.67749,N,02706.97313,E,6.190,237.39,260424,,,A*6D

[2024-04-26 16:50:26.326548] $GPRMC,202830.00,A,3819.67685,N,02706.97104,E,5.345,236.75,260424,,,A*60

[2024-04-26 16:50:27.328851] $GPRMC,202831.00,A,3819.67614,N,02706.96932,E,4.149,235.78,260424,,,A*64

[2024-04-26 16:50:28.328055] $GPRMC,202832.00,A,3819.67544,N,02706.96816,E,3.130,230.11,260424,,,A*65

[2024-04-26 16:50:29.322398] $GPRMC,202833.00,A,3819.67436,N,02706.96762,E,3.170,219.80,260424,,,A*6B

[2024-04-26 16:50:30.320462] $GPRMC,202834.00,A,3819.67298,N,02706.96733,E,4.063,199.88,260424,,,A*6D

[2024-04-26 16:50:31.323068] $GPRMC,202835.00,A,3819.67178,N,02706.96753,E,4.687,177.89,260424,,,A*6A

[2024-04-26 16:50:32.318989] $GPRMC,202836.00,A,3819.67048,N,02706.96826,E,5.883,168.51,260424,,,A*66

[2024-04-26 16:50:33.320032] $GPRMC,202837.00,A,3819.66860,N,02706.96939,E,6.932,157.47,260424,,,A*68

[2024-04-26 16:50:34.319119] $GPRMC,202838.00,A,3819.66643,N,02706.97052,E,7.276,156.69,260424,,,A*6A

[2024-04-26 16:50:35.318621] $GPRMC,202839.00,A,3819.66406,N,02706.97176,E,8.088,156.73,260424,,,A*68

[2024-04-26 16:50:36.318348] $GPRMC,202840.00,A,3819.66142,N,02706.97335,E,8.750,156.70,260424,,,A*67

[2024-04-26 16:50:37.316770] $GPRMC,202841.00,A,3819.65861,N,02706.97522,E,9.600,156.71,260424,,,A*69

[2024-04-26 16:50:38.319629] $GPRMC,202842.00,A,3819.65642,N,02706.97709,E,9.490,150.69,260424,,,A*6A

[2024-04-26 16:50:39.327255] $GPRMC,202843.00,A,3819.65444,N,02706.97935,E,10.025,144.01,260424,,,A*57

[2024-04-26 16:50:40.320241] $GPRMC,202844.00,A,3819.65153,N,02706.98070,E,11.585,155.46,260424,,,A*59

[2024-04-26 16:50:41.320810] $GPRMC,202845.00,A,3819.64827,N,02706.98223,E,12.630,158.85,260424,,,A*5B

[2024-04-26 16:50:42.320262] $GPRMC,202846.00,A,3819.64483,N,02706.98403,E,13.053,157.59,260424,,,A*52

[2024-04-26 16:50:43.317811] $GPRMC,202847.00,A,3819.64106,N,02706.98608,E,14.238,155.76,260424,,,A*55

[2024-04-26 16:50:44.319550] $GPRMC,202848.00,A,3819.63709,N,02706.98821,E,15.434,156.40,260424,,,A*5C

[2024-04-26 16:50:45.312961] $GPRMC,202849.00,A,3819.63276,N,02706.99043,E,16.598,157.43,260424,,,A*5B

[2024-04-26 16:50:46.313951] $GPRMC,202850.00,A,3819.62822,N,02706.99278,E,17.472,157.86,260424,,,A*5E

[2024-04-26 16:50:47.317667] $GPRMC,202851.00,A,3819.62372,N,02706.99510,E,17.447,157.55,260424,,,A*50

[2024-04-26 16:50:48.316255] $GPRMC,202852.00,A,3819.61929,N,02706.99738,E,16.901,157.52,260424,,,A*55

[2024-04-26 16:50:49.318372] $GPRMC,202853.00,A,3819.61490,N,02706.99944,E,15.668,158.23,260424,,,A*54

[2024-04-26 16:50:50.322506] $GPRMC,202854.00,A,3819.61110,N,02707.00135,E,13.808,157.32,260424,,,A*50

[2024-04-26 16:50:51.324328] $GPRMC,202855.00,A,3819.60774,N,02707.00308,E,12.176,157.21,260424,,,A*5B

[2024-04-26 16:50:52.320250] $GPRMC,202856.00,A,3819.60475,N,02707.00466,E,11.232,157.22,260424,,,A*56

[2024-04-26 16:50:53.317759] $GPRMC,202857.00,A,3819.60153,N,02707.00613,E,11.215,157.19,260424,,,A*5B

[2024-04-26 16:50:54.315496] $GPRMC,202858.00,A,3819.59861,N,02707.00769,E,11.146,157.09,260424,,,A*5E

[2024-04-26 16:50:55.317605] $GPRMC,202859.00,A,3819.59582,N,02707.00929,E,10.911,156.24,260424,,,A*50

[2024-04-26 16:50:56.327475] $GPRMC,202900.00,A,3819.59301,N,02707.01090,E,10.935,156.48,260424,,,A*56

[2024-04-26 16:50:57.323476] $GPRMC,202901.00,A,3819.59015,N,02707.01246,E,10.948,155.89,260424,,,A*5C

[2024-04-26 16:50:58.319423] $GPRMC,202902.00,A,3819.58729,N,02707.01404,E,10.836,153.95,260424,,,A*55

[2024-04-26 16:50:59.320337] $GPRMC,202903.00,A,3819.58444,N,02707.01557,E,10.683,151.78,260424,,,A*5A

[2024-04-26 16:51:00.323568] $GPRMC,202904.00,A,3819.58177,N,02707.01722,E,10.670,150.20,260424,,,A*58

[2024-04-26 16:51:01.326126] $GPRMC,202905.00,A,3819.57924,N,02707.01899,E,10.512,148.93,260424,,,A*51

[2024-04-26 16:51:02.321577] $GPRMC,202906.00,A,3819.57711,N,02707.02050,E,8.806,150.27,260424,,,A*63

[2024-04-26 16:51:03.324722] $GPRMC,202907.00,A,3819.57578,N,02707.02164,E,5.322,149.06,260424,,,A*62

[2024-04-26 16:51:04.321546] $GPRMC,202908.00,A,3819.57483,N,02707.02227,E,3.509,151.43,260424,,,A*6D

[2024-04-26 16:51:05.323025] $GPRMC,202909.00,A,3819.57400,N,02707.02275,E,3.337,152.82,260424,,,A*65

[2024-04-26 16:51:06.321237] $GPRMC,202910.00,A,3819.57310,N,02707.02330,E,3.735,154.19,260424,,,A*69

[2024-04-26 16:51:07.319604] $GPRMC,202911.00,A,3819.57186,N,02707.02389,E,5.131,157.91,260424,,,A*60

[2024-04-26 16:51:08.320096] $GPRMC,202912.00,A,3819.57015,N,02707.02467,E,6.572,157.76,260424,,,A*66

[2024-04-26 16:51:09.327063] $GPRMC,202913.00,A,3819.56816,N,02707.02570,E,7.708,155.67,260424,,,A*66

[2024-04-26 16:51:10.322808] $GPRMC,202914.00,A,3819.56578,N,02707.02683,E,9.760,158.82,260424,,,A*6D

[2024-04-26 16:51:11.319525] $GPRMC,202915.00,A,3819.56294,N,02707.02810,E,11.408,161.49,260424,,,A*54

[2024-04-26 16:51:12.317356] $GPRMC,202916.00,A,3819.56038,N,02707.03002,E,10.712,154.30,260424,,,A*58

[2024-04-26 16:51:13.321835] $GPRMC,202917.00,A,3819.55717,N,02707.03165,E,13.130,158.81,260424,,,A*53

[2024-04-26 16:51:14.323158] $GPRMC,202918.00,A,3819.55339,N,02707.03331,E,14.522,161.38,260424,,,A*5F

[2024-04-26 16:51:15.320367] $GPRMC,202919.00,A,3819.54935,N,02707.03458,E,14.675,164.25,260424,,,A*59

[2024-04-26 16:51:16.319412] $GPRMC,202920.00,A,3819.54533,N,02707.03588,E,14.395,165.56,260424,,,A*5B

[2024-04-26 16:51:17.317112] $GPRMC,202921.00,A,3819.54228,N,02707.03705,E,11.404,164.36,260424,,,A*5D

[2024-04-26 16:51:18.317302] $GPRMC,202922.00,A,3819.53929,N,02707.03812,E,10.473,164.62,260424,,,A*5A

[2024-04-26 16:51:19.318073] $GPRMC,202923.00,A,3819.53732,N,02707.03906,E,6.773,162.95,260424,,,A*61

[2024-04-26 16:51:20.315118] $GPRMC,202924.00,A,3819.53591,N,02707.04020,E,5.016,159.74,260424,,,A*67

[2024-04-26 16:51:21.311688] $GPRMC,202925.00,A,3819.53476,N,02707.04084,E,3.951,155.87,260424,,,A*6C

[2024-04-26 16:51:22.315530] $GPRMC,202926.00,A,3819.53297,N,02707.04163,E,4.583,139.87,260424,,,A*60

[2024-04-26 16:51:23.316808] $GPRMC,202927.00,A,3819.53195,N,02707.04273,E,4.402,133.39,260424,,,A*65

[2024-04-26 16:51:24.314044] $GPRMC,202928.00,A,3819.53173,N,02707.04398,E,4.429,114.33,260424,,,A*60

[2024-04-26 16:51:25.314728] $GPRMC,202929.00,A,3819.53204,N,02707.04528,E,5.076,85.62,260424,,,A*5D

[2024-04-26 16:51:26.313836] $GPRMC,202930.00,A,3819.53206,N,02707.04680,E,5.584,77.86,260424,,,A*59

[2024-04-26 16:51:27.314751] $GPRMC,202931.00,A,3819.53236,N,02707.04872,E,6.243,77.37,260424,,,A*5D

[2024-04-26 16:51:28.313649] $GPRMC,202932.00,A,3819.53238,N,02707.05034,E,5.320,80.50,260424,,,A*55

[2024-04-26 16:51:29.314560] $GPRMC,202933.00,A,3819.53217,N,02707.05160,E,3.748,80.39,260424,,,A*5A

[2024-04-26 16:51:30.313937] $GPRMC,202934.00,A,3819.53214,N,02707.05253,E,2.367,80.43,260424,,,A*58

[2024-04-26 16:51:31.317604] $GPRMC,202935.00,A,3819.53217,N,02707.05309,E,1.553,83.01,260424,,,A*53

[2024-04-26 16:51:32.317813] $GPRMC,202936.00,A,3819.53214,N,02707.05352,E,1.419,89.74,260424,,,A*5A

[2024-04-26 16:51:33.319327] $GPRMC,202937.00,A,3819.53214,N,02707.05390,E,1.240,,260424,,,A*73

[2024-04-26 16:51:34.317052] $GPRMC,202938.00,A,3819.53220,N,02707.05429,E,0.990,,260424,,,A*79

[2024-04-26 16:51:35.316824] $GPRMC,202939.00,A,3819.53220,N,02707.05459,E,0.676,,260424,,,A*78

[2024-04-26 16:51:36.316309] $GPRMC,202940.00,A,3819.53226,N,02707.05478,E,0.541,,260424,,,A*74

[2024-04-26 16:51:37.314803] $GPRMC,202941.00,A,3819.53229,N,02707.05513,E,1.120,,260424,,,A*74

[2024-04-26 16:51:38.316625] $GPRMC,202942.00,A,3819.53231,N,02707.05547,E,0.988,,260424,,,A*74

[2024-04-26 16:51:39.321402] $GPRMC,202943.00,A,3819.53230,N,02707.05586,E,1.146,,260424,,,A*72

[2024-04-26 16:51:40.321755] $GPRMC,202944.00,A,3819.53217,N,02707.05643,E,2.092,91.39,260424,,,A*5D

[2024-04-26 16:51:41.319743] $GPRMC,202945.00,A,3819.53203,N,02707.05744,E,2.871,95.47,260424,,,A*57

[2024-04-26 16:51:42.317583] $GPRMC,202946.00,A,3819.53188,N,02707.05860,E,2.765,93.39,260424,,,A*58

[2024-04-26 16:51:43.318090] $GPRMC,202947.00,A,3819.53199,N,02707.05961,E,2.936,89.63,260424,,,A*55

[2024-04-26 16:51:44.324015] $GPRMC,202948.00,A,3819.53146,N,02707.06046,E,2.178,87.50,260424,,,A*5B

[2024-04-26 16:51:45.317556] $GPRMC,202949.00,A,3819.53152,N,02707.06134,E,2.689,85.85,260424,,,A*58

[2024-04-26 16:51:46.317945] $GPRMC,202950.00,A,3819.53129,N,02707.06222,E,3.039,87.34,260424,,,A*5C

[2024-04-26 16:51:47.316917] $GPRMC,202951.00,A,3819.53116,N,02707.06326,E,3.140,85.50,260424,,,A*5B

[2024-04-26 16:51:48.317849] $GPRMC,202952.00,A,3819.53156,N,02707.06463,E,3.893,80.48,260424,,,A*51

[2024-04-26 16:51:49.319764] $GPRMC,202953.00,A,3819.53178,N,02707.06606,E,4.651,82.25,260424,,,A*53

[2024-04-26 16:51:50.319961] $GPRMC,202954.00,A,3819.53196,N,02707.06770,E,5.106,82.56,260424,,,A*54

[2024-04-26 16:51:51.320298] $GPRMC,202955.00,A,3819.53232,N,02707.06954,E,5.304,80.93,260424,,,A*5B

[2024-04-26 16:51:52.318496] $GPRMC,202956.00,A,3819.53236,N,02707.07123,E,5.145,80.47,260424,,,A*5B

[2024-04-26 16:51:53.321323] $GPRMC,202957.00,A,3819.53235,N,02707.07248,E,3.941,79.43,260424,,,A*5F

[2024-04-26 16:51:54.319090] $GPRMC,202958.00,A,3819.53275,N,02707.07397,E,4.282,77.56,260424,,,A*5E

[2024-04-26 16:51:55.319256] $GPRMC,202959.00,A,3819.53299,N,02707.07551,E,4.889,80.17,260424,,,A*5D

[2024-04-26 16:51:56.321889] $GPRMC,203000.00,A,3819.53337,N,02707.07756,E,5.783,78.84,260424,,,A*50

[2024-04-26 16:51:57.318248] $GPRMC,203001.00,A,3819.53390,N,02707.07973,E,6.394,77.73,260424,,,A*53

[2024-04-26 16:51:58.317899] $GPRMC,203002.00,A,3819.53398,N,02707.08183,E,6.421,76.52,260424,,,A*5B

[2024-04-26 16:51:59.317859] $GPRMC,203003.00,A,3819.53445,N,02707.08428,E,6.934,77.63,260424,,,A*53

[2024-04-26 16:52:00.317107] $GPRMC,203004.00,A,3819.53502,N,02707.08689,E,7.146,77.16,260424,,,A*51

[2024-04-26 16:52:01.316817] $GPRMC,203005.00,A,3819.53558,N,02707.08949,E,7.026,78.31,260424,,,A*51

[2024-04-26 16:52:02.319877] $GPRMC,203006.00,A,3819.53577,N,02707.09181,E,6.264,81.84,260424,,,A*5F

[2024-04-26 16:52:03.318681] $GPRMC,203007.00,A,3819.53632,N,02707.09393,E,5.718,80.73,260424,,,A*59

[2024-04-26 16:52:04.319313] $GPRMC,203008.00,A,3819.53663,N,02707.09565,E,4.854,81.89,260424,,,A*5F

[2024-04-26 16:52:05.317919] $GPRMC,203009.00,A,3819.53670,N,02707.09733,E,4.487,80.89,260424,,,A*5E

[2024-04-26 16:52:06.318386] $GPRMC,203010.00,A,3819.53723,N,02707.09913,E,5.084,78.54,260424,,,A*5C

[2024-04-26 16:52:07.320265] $GPRMC,203011.00,A,3819.53726,N,02707.10087,E,5.106,80.25,260424,,,A*5E

[2024-04-26 16:52:08.318830] $GPRMC,203012.00,A,3819.53755,N,02707.10276,E,5.565,80.61,260424,,,A*54

[2024-04-26 16:52:09.326453] $GPRMC,203013.00,A,3819.53789,N,02707.10491,E,6.145,80.10,260424,,,A*58

[2024-04-26 16:52:10.322285] $GPRMC,203014.00,A,3819.53846,N,02707.10726,E,6.570,82.93,260424,,,A*57

[2024-04-26 16:52:11.325368] $GPRMC,203015.00,A,3819.53875,N,02707.10963,E,6.968,80.09,260424,,,A*5D

[2024-04-26 16:52:12.320914] $GPRMC,203016.00,A,3819.53918,N,02707.11189,E,6.229,78.11,260424,,,A*59

[2024-04-26 16:52:13.319554] $GPRMC,203017.00,A,3819.53936,N,02707.11367,E,3.387,78.15,260424,,,A*52

[2024-04-26 16:52:14.322191] $GPRMC,203018.00,A,3819.53960,N,02707.11493,E,3.612,70.08,260424,,,A*5F

[2024-04-26 16:52:15.320280] $GPRMC,203019.00,A,3819.53982,N,02707.11674,E,4.640,78.11,260424,,,A*59

[2024-04-26 16:52:16.322317] $GPRMC,203020.00,A,3819.54008,N,02707.11843,E,4.614,79.14,260424,,,A*50

[2024-04-26 16:52:17.321209] $GPRMC,203021.00,A,3819.54029,N,02707.12023,E,5.179,78.37,260424,,,A*52

[2024-04-26 16:52:18.322350] $GPRMC,203022.00,A,3819.54076,N,02707.12229,E,5.742,77.29,260424,,,A*5D

[2024-04-26 16:52:19.322189] $GPRMC,203023.00,A,3819.54120,N,02707.12456,E,6.276,77.64,260424,,,A*58

[2024-04-26 16:52:20.325616] $GPRMC,203024.00,A,3819.54165,N,02707.12686,E,6.317,78.24,260424,,,A*5C

[2024-04-26 16:52:21.323692] $GPRMC,203025.00,A,3819.54205,N,02707.12880,E,4.924,80.59,260424,,,A*55

[2024-04-26 16:52:22.322192] $GPRMC,203026.00,A,3819.54242,N,02707.13037,E,4.140,79.29,260424,,,A*5B

[2024-04-26 16:52:23.322403] $GPRMC,203027.00,A,3819.54276,N,02707.13180,E,3.809,77.85,260424,,,A*5B

[2024-04-26 16:52:24.323761] $GPRMC,203028.00,A,3819.54312,N,02707.13330,E,3.975,74.24,260424,,,A*5C

[2024-04-26 16:52:25.321751] $GPRMC,203029.00,A,3819.54334,N,02707.13451,E,3.171,73.93,260424,,,A*5E

[2024-04-26 16:52:26.323687] $GPRMC,203030.00,A,3819.54370,N,02707.13550,E,2.737,72.34,260424,,,A*5F

[2024-04-26 16:52:27.327812] $GPRMC,203031.00,A,3819.54417,N,02707.13640,E,2.093,70.45,260424,,,A*57

[2024-04-26 16:52:28.327575] $GPRMC,203032.00,A,3819.54433,N,02707.13710,E,2.168,67.03,260424,,,A*57

[2024-04-26 16:52:29.325438] $GPRMC,203033.00,A,3819.54438,N,02707.13732,E,0.178,,260424,,,A*72

[2024-04-26 16:52:30.327896] $GPRMC,203034.00,A,3819.54435,N,02707.13735,E,0.208,,260424,,,A*7B

[2024-04-26 16:52:31.323295] $GPRMC,203035.00,A,3819.54439,N,02707.13743,E,0.199,,260424,,,A*7C

[2024-04-26 16:52:32.326537] $GPRMC,203036.00,A,3819.54450,N,02707.13765,E,1.127,64.85,260424,,,A*51

