[2024-04-28 16:58:29.404129] $GPRMC,170632.00,V,,,,,,,280424,,,N*74

[2024-04-28 16:58:30.577769] $GPRMC,170633.00,V,,,,,,,280424,,,N*75

[2024-04-28 16:58:31.411888] $GPRMC,170634.00,V,,,,,,,280424,,,N*72

[2024-04-28 16:58:32.411261] $GPRMC,170635.00,V,,,,,,,280424,,,N*73

[2024-04-28 16:58:33.411072] $GPRMC,170636.00,V,,,,,,,280424,,,N*70

[2024-04-28 16:58:34.411866] $GPRMC,170637.00,V,,,,,,,280424,,,N*71

[2024-04-28 16:58:35.411931] $GPRMC,170638.00,V,,,,,,,280424,,,N*7E

[2024-04-28 16:58:36.413082] $GPRMC,170639.00,V,,,,,,,280424,,,N*7F

[2024-04-28 16:58:37.418047] $GPRMC,170640.00,V,,,,,,,280424,,,N*71

[2024-04-28 16:58:38.415420] $GPRMC,170641.00,V,,,,,,,280424,,,N*70

[2024-04-28 16:58:39.413076] $GPRMC,170642.00,V,,,,,,,280424,,,N*73

[2024-04-28 16:58:40.413492] $GPRMC,170643.00,V,,,,,,,280424,,,N*72

[2024-04-28 16:58:41.413081] $GPRMC,170644.00,V,,,,,,,280424,,,N*75

[2024-04-28 16:58:42.413380] $GPRMC,170645.00,V,,,,,,,280424,,,N*74

[2024-04-28 16:58:43.417466] $GPRMC,170646.00,V,,,,,,,280424,,,N*77

[2024-04-28 16:58:44.413759] $GPRMC,170647.00,V,,,,,,,280424,,,N*76

[2024-04-28 16:58:45.411852] $GPRMC,170648.00,V,,,,,,,280424,,,N*79

[2024-04-28 16:58:46.413274] $GPRMC,170649.00,V,,,,,,,280424,,,N*78

[2024-04-28 16:58:47.413728] $GPRMC,170650.00,V,,,,,,,280424,,,N*70

[2024-04-28 16:58:48.414483] $GPRMC,170651.00,V,,,,,,,280424,,,N*71

[2024-04-28 16:58:49.470448] $GPRMC,170652.00,V,,,,,,,280424,,,N*72

[2024-04-28 16:58:50.414987] $GPRMC,170653.00,V,,,,,,,280424,,,N*73

[2024-04-28 16:58:51.413699] $GPRMC,170654.00,V,,,,,,,280424,,,N*74

[2024-04-28 16:58:52.410851] $GPRMC,170655.00,V,,,,,,,280424,,,N*75

[2024-04-28 16:58:53.416658] $GPRMC,170656.00,V,,,,,,,280424,,,N*76

[2024-04-28 16:58:54.416799] $GPRMC,170657.00,V,,,,,,,280424,,,N*77

[2024-04-28 16:58:55.414604] $GPRMC,170658.00,V,,,,,,,280424,,,N*78

[2024-04-28 16:58:56.413119] $GPRMC,170659.00,V,,,,,,,280424,,,N*79

[2024-04-28 16:58:57.411808] $GPRMC,170700.00,V,,,,,,,280424,,,N*74

[2024-04-28 16:58:58.413799] $GPRMC,170701.00,V,,,,,,,280424,,,N*75

[2024-04-28 16:58:59.411196] $GPRMC,170702.00,V,,,,,,,280424,,,N*76

[2024-04-28 16:59:00.412081] $GPRMC,170703.00,V,,,,,,,280424,,,N*77

[2024-04-28 16:59:01.454233] $GPRMC,170704.00,A,3819.36266,N,02638.44054,E,0.047,,280424,,,A*74

[2024-04-28 16:59:02.448757] $GPRMC,170705.00,A,3819.36236,N,02638.44017,E,0.029,,280424,,,A*7F

[2024-04-28 16:59:03.448391] $GPRMC,170706.00,A,3819.36224,N,02638.43998,E,0.060,,280424,,,A*7B

[2024-04-28 16:59:04.448156] $GPRMC,170707.00,A,3819.36220,N,02638.43987,E,0.103,,280424,,,A*74

[2024-04-28 16:59:05.449223] $GPRMC,170708.00,A,3819.36216,N,02638.43978,E,0.198,,280424,,,A*7C

[2024-04-28 16:59:06.450132] $GPRMC,170709.00,A,3819.36227,N,02638.43949,E,0.257,,280424,,,A*7D

[2024-04-28 16:59:07.455211] $GPRMC,170710.00,A,3819.36229,N,02638.43927,E,0.304,,280424,,,A*74

[2024-04-28 16:59:08.450005] $GPRMC,170711.00,A,3819.36242,N,02638.43911,E,0.044,,280424,,,A*7A

[2024-04-28 16:59:09.448924] $GPRMC,170712.00,A,3819.36246,N,02638.43901,E,0.118,,280424,,,A*74

[2024-04-28 16:59:10.453435] $GPRMC,170713.00,A,3819.36250,N,02638.43898,E,0.141,,280424,,,A*7F

[2024-04-28 16:59:11.451068] $GPRMC,170714.00,A,3819.36255,N,02638.43899,E,0.260,,280424,,,A*7C

[2024-04-28 16:59:12.451684] $GPRMC,170715.00,A,3819.36260,N,02638.43903,E,0.244,,280424,,,A*7F

[2024-04-28 16:59:13.453576] $GPRMC,170716.00,A,3819.36259,N,02638.43906,E,0.157,,280424,,,A*72

[2024-04-28 16:59:14.452970] $GPRMC,170717.00,A,3819.36231,N,02638.43900,E,1.303,,280424,,,A*79

[2024-04-28 16:59:15.450699] $GPRMC,170718.00,A,3819.36185,N,02638.43889,E,2.017,209.39,280424,,,A*60

[2024-04-28 16:59:16.450779] $GPRMC,170719.00,A,3819.36125,N,02638.43870,E,2.153,201.31,280424,,,A*6C

[2024-04-28 16:59:17.453522] $GPRMC,170720.00,A,3819.36108,N,02638.43864,E,0.464,,280424,,,A*70

[2024-04-28 16:59:18.449395] $GPRMC,170721.00,A,3819.36048,N,02638.43852,E,2.016,,280424,,,A*72

[2024-04-28 16:59:19.448901] $GPRMC,170722.00,A,3819.35983,N,02638.43859,E,2.457,,280424,,,A*76

[2024-04-28 16:59:20.452632] $GPRMC,170723.00,A,3819.35940,N,02638.43898,E,1.772,,280424,,,A*72

[2024-04-28 16:59:21.452517] $GPRMC,170724.00,A,3819.35875,N,02638.43938,E,1.035,,280424,,,A*7D

[2024-04-28 16:59:22.452936] $GPRMC,170725.00,A,3819.35812,N,02638.43935,E,1.264,,280424,,,A*76

[2024-04-28 16:59:23.447459] $GPRMC,170726.00,A,3819.35787,N,02638.43918,E,0.666,,280424,,,A*7E

[2024-04-28 16:59:24.449645] $GPRMC,170727.00,A,3819.35794,N,02638.43883,E,1.162,,280424,,,A*7C

[2024-04-28 16:59:25.448828] $GPRMC,170728.00,A,3819.35744,N,02638.43708,E,4.757,232.53,280424,,,A*6C

[2024-04-28 16:59:26.453574] $GPRMC,170729.00,A,3819.35693,N,02638.43477,E,6.793,261.03,280424,,,A*64

[2024-04-28 16:59:27.449488] $GPRMC,170730.00,A,3819.35667,N,02638.43206,E,7.352,263.48,280424,,,A*62

[2024-04-28 16:59:28.449820] $GPRMC,170731.00,A,3819.35667,N,02638.42925,E,7.881,268.06,280424,,,A*6C

[2024-04-28 16:59:29.457544] $GPRMC,170732.00,A,3819.35710,N,02638.42617,E,8.822,274.03,280424,,,A*6E

[2024-04-28 16:59:30.456858] $GPRMC,170733.00,A,3819.35771,N,02638.42278,E,10.061,279.30,280424,,,A*5E

[2024-04-28 16:59:31.449684] $GPRMC,170734.00,A,3819.35835,N,02638.41891,E,11.031,283.40,280424,,,A*5E

[2024-04-28 16:59:32.452936] $GPRMC,170735.00,A,3819.35962,N,02638.41497,E,11.769,284.26,280424,,,A*5B

[2024-04-28 16:59:33.449758] $GPRMC,170736.00,A,3819.36055,N,02638.41089,E,12.250,283.76,280424,,,A*53

[2024-04-28 16:59:34.449809] $GPRMC,170737.00,A,3819.36069,N,02638.40650,E,12.560,284.04,280424,,,A*58

[2024-04-28 16:59:35.448970] $GPRMC,170738.00,A,3819.36140,N,02638.40206,E,13.363,284.04,280424,,,A*5E

[2024-04-28 16:59:36.449592] $GPRMC,170739.00,A,3819.36217,N,02638.39758,E,12.751,282.72,280424,,,A*5D

[2024-04-28 16:59:37.450444] $GPRMC,170740.00,A,3819.36242,N,02638.39327,E,11.983,276.44,280424,,,A*53

[2024-04-28 16:59:38.455650] $GPRMC,170741.00,A,3819.36073,N,02638.38959,E,10.991,261.85,280424,,,A*59

[2024-04-28 16:59:39.453537] $GPRMC,170742.00,A,3819.35895,N,02638.38698,E,9.102,250.01,280424,,,A*6F

[2024-04-28 16:59:40.450214] $GPRMC,170743.00,A,3819.35664,N,02638.38581,E,8.599,231.19,280424,,,A*6C

[2024-04-28 16:59:41.450301] $GPRMC,170744.00,A,3819.35362,N,02638.38556,E,10.246,198.20,280424,,,A*54

[2024-04-28 16:59:42.454640] $GPRMC,170745.00,A,3819.35032,N,02638.38510,E,11.510,191.71,280424,,,A*59

[2024-04-28 16:59:43.459046] $GPRMC,170746.00,A,3819.34688,N,02638.38434,E,12.115,191.88,280424,,,A*5F

[2024-04-28 16:59:44.452730] $GPRMC,170747.00,A,3819.34299,N,02638.38380,E,12.897,191.62,280424,,,A*55

[2024-04-28 16:59:45.449938] $GPRMC,170748.00,A,3819.33922,N,02638.38281,E,13.536,191.22,280424,,,A*55

[2024-04-28 16:59:46.449949] $GPRMC,170749.00,A,3819.33531,N,02638.38163,E,14.398,190.40,280424,,,A*55

[2024-04-28 16:59:47.448733] $GPRMC,170750.00,A,3819.33123,N,02638.38042,E,14.383,194.52,280424,,,A*55

[2024-04-28 16:59:48.453448] $GPRMC,170751.00,A,3819.32727,N,02638.37991,E,13.323,192.51,280424,,,A*57

[2024-04-28 16:59:49.451813] $GPRMC,170752.00,A,3819.32382,N,02638.37862,E,12.710,190.38,280424,,,A*5A

[2024-04-28 16:59:50.449274] $GPRMC,170753.00,A,3819.32059,N,02638.37826,E,11.204,189.47,280424,,,A*5D

[2024-04-28 16:59:51.452155] $GPRMC,170754.00,A,3819.31801,N,02638.37719,E,9.494,194.61,280424,,,A*61

[2024-04-28 16:59:52.452907] $GPRMC,170755.00,A,3819.31525,N,02638.37508,E,12.039,206.21,280424,,,A*5C

[2024-04-28 16:59:53.452997] $GPRMC,170756.00,A,3819.31411,N,02638.37326,E,6.199,217.37,280424,,,A*6A

[2024-04-28 16:59:54.454156] $GPRMC,170757.00,A,3819.31369,N,02638.37244,E,2.052,220.97,280424,,,A*6A

[2024-04-28 16:59:55.452549] $GPRMC,170758.00,A,3819.31356,N,02638.37218,E,1.013,,280424,,,A*76

[2024-04-28 16:59:56.452999] $GPRMC,170759.00,A,3819.31357,N,02638.37210,E,1.339,,280424,,,A*75

[2024-04-28 16:59:57.452892] $GPRMC,170800.00,A,3819.31282,N,02638.37091,E,4.329,232.75,280424,,,A*6F

[2024-04-28 16:59:58.450214] $GPRMC,170801.00,A,3819.31107,N,02638.36846,E,7.478,220.65,280424,,,A*61

[2024-04-28 16:59:59.450238] $GPRMC,170802.00,A,3819.30898,N,02638.36762,E,8.175,204.47,280424,,,A*64

[2024-04-28 17:00:00.450537] $GPRMC,170803.00,A,3819.30620,N,02638.36670,E,10.135,195.62,280424,,,A*5B

[2024-04-28 17:00:01.450677] $GPRMC,170804.00,A,3819.30308,N,02638.36564,E,11.921,191.84,280424,,,A*55

[2024-04-28 17:00:02.449899] $GPRMC,170805.00,A,3819.29973,N,02638.36496,E,12.458,189.10,280424,,,A*52

[2024-04-28 17:00:03.449209] $GPRMC,170806.00,A,3819.29582,N,02638.36416,E,14.126,189.07,280424,,,A*57

[2024-04-28 17:00:04.451137] $GPRMC,170807.00,A,3819.29157,N,02638.36332,E,15.109,189.78,280424,,,A*5F

[2024-04-28 17:00:05.450011] $GPRMC,170808.00,A,3819.28785,N,02638.36241,E,13.434,191.01,280424,,,A*57

[2024-04-28 17:00:06.449264] $GPRMC,170809.00,A,3819.28380,N,02638.36140,E,14.958,189.93,280424,,,A*57

[2024-04-28 17:00:07.453088] $GPRMC,170810.00,A,3819.27980,N,02638.36053,E,14.406,189.29,280424,,,A*5E

[2024-04-28 17:00:08.451351] $GPRMC,170811.00,A,3819.27649,N,02638.35998,E,11.770,189.04,280424,,,A*50

[2024-04-28 17:00:09.449266] $GPRMC,170812.00,A,3819.27363,N,02638.35961,E,9.959,187.52,280424,,,A*69

[2024-04-28 17:00:10.448499] $GPRMC,170813.00,A,3819.27105,N,02638.35908,E,9.188,187.73,280424,,,A*62

[2024-04-28 17:00:11.448386] $GPRMC,170814.00,A,3819.26877,N,02638.35854,E,8.242,187.20,280424,,,A*62

[2024-04-28 17:00:12.449978] $GPRMC,170815.00,A,3819.26622,N,02638.35815,E,9.106,186.32,280424,,,A*68

[2024-04-28 17:00:13.453408] $GPRMC,170816.00,A,3819.26328,N,02638.35748,E,10.467,188.89,280424,,,A*57

[2024-04-28 17:00:14.450594] $GPRMC,170817.00,A,3819.25989,N,02638.35674,E,11.894,190.54,280424,,,A*52

[2024-04-28 17:00:15.450597] $GPRMC,170818.00,A,3819.25638,N,02638.35584,E,12.682,190.66,280424,,,A*5F

[2024-04-28 17:00:16.450537] $GPRMC,170819.00,A,3819.25290,N,02638.35515,E,12.101,191.23,280424,,,A*5C

[2024-04-28 17:00:17.453665] $GPRMC,170820.00,A,3819.24992,N,02638.35431,E,10.159,191.76,280424,,,A*56

[2024-04-28 17:00:18.455407] $GPRMC,170821.00,A,3819.24728,N,02638.35351,E,9.420,191.60,280424,,,A*6D

[2024-04-28 17:00:19.449827] $GPRMC,170822.00,A,3819.24453,N,02638.35284,E,9.869,190.54,280424,,,A*6F

[2024-04-28 17:00:20.450135] $GPRMC,170823.00,A,3819.24144,N,02638.35210,E,11.216,190.33,280424,,,A*5A

[2024-04-28 17:00:21.453466] $GPRMC,170824.00,A,3819.23804,N,02638.35129,E,12.636,189.78,280424,,,A*5C

[2024-04-28 17:00:22.453816] $GPRMC,170825.00,A,3819.23420,N,02638.35045,E,13.876,190.69,280424,,,A*5F

[2024-04-28 17:00:23.450602] $GPRMC,170826.00,A,3819.23003,N,02638.34953,E,15.045,191.08,280424,,,A*5E

[2024-04-28 17:00:24.450418] $GPRMC,170827.00,A,3819.22558,N,02638.34851,E,16.188,190.07,280424,,,A*5B

[2024-04-28 17:00:25.449913] $GPRMC,170828.00,A,3819.22107,N,02638.34748,E,16.337,189.48,280424,,,A*58

[2024-04-28 17:00:26.455327] $GPRMC,170829.00,A,3819.21666,N,02638.34656,E,15.590,190.44,280424,,,A*58

[2024-04-28 17:00:27.453843] $GPRMC,170830.00,A,3819.21236,N,02638.34566,E,15.373,190.71,280424,,,A*5C

[2024-04-28 17:00:28.450656] $GPRMC,170831.00,A,3819.20805,N,02638.34470,E,15.490,190.05,280424,,,A*59

[2024-04-28 17:00:29.453948] $GPRMC,170832.00,A,3819.20352,N,02638.34367,E,16.221,189.98,280424,,,A*51

[2024-04-28 17:00:30.456617] $GPRMC,170833.00,A,3819.19896,N,02638.34261,E,16.359,190.39,280424,,,A*53

[2024-04-28 17:00:31.452933] $GPRMC,170834.00,A,3819.19445,N,02638.34172,E,16.068,189.90,280424,,,A*5D

[2024-04-28 17:00:32.453503] $GPRMC,170835.00,A,3819.18989,N,02638.34087,E,16.363,189.37,280424,,,A*5E

[2024-04-28 17:00:33.450387] $GPRMC,170836.00,A,3819.18536,N,02638.33989,E,16.057,188.56,280424,,,A*57

[2024-04-28 17:00:34.451108] $GPRMC,170837.00,A,3819.18103,N,02638.33891,E,15.272,188.44,280424,,,A*59

[2024-04-28 17:00:35.449942] $GPRMC,170838.00,A,3819.17713,N,02638.33810,E,13.570,189.43,280424,,,A*52

[2024-04-28 17:00:36.450611] $GPRMC,170839.00,A,3819.17369,N,02638.33749,E,11.853,189.41,280424,,,A*55

[2024-04-28 17:00:37.453953] $GPRMC,170840.00,A,3819.17061,N,02638.33694,E,10.984,187.99,280424,,,A*50

[2024-04-28 17:00:38.451461] $GPRMC,170841.00,A,3819.16809,N,02638.33602,E,9.136,194.89,280424,,,A*63

[2024-04-28 17:00:39.452987] $GPRMC,170842.00,A,3819.16616,N,02638.33458,E,7.703,205.68,280424,,,A*67

[2024-04-28 17:00:40.453578] $GPRMC,170843.00,A,3819.16476,N,02638.33237,E,8.038,221.29,280424,,,A*6E

[2024-04-28 17:00:41.447136] $GPRMC,170844.00,A,3819.16402,N,02638.32971,E,7.966,233.79,280424,,,A*69

[2024-04-28 17:00:42.449932] $GPRMC,170845.00,A,3819.16415,N,02638.32729,E,7.070,253.15,280424,,,A*6F

[2024-04-28 17:00:43.455822] $GPRMC,170846.00,A,3819.16437,N,02638.32394,E,8.637,272.54,280424,,,A*62

[2024-04-28 17:00:44.451414] $GPRMC,170847.00,A,3819.16463,N,02638.32009,E,10.600,278.75,280424,,,A*51

[2024-04-28 17:00:45.450620] $GPRMC,170848.00,A,3819.16507,N,02638.31559,E,12.023,281.53,280424,,,A*59

[2024-04-28 17:00:46.450998] $GPRMC,170849.00,A,3819.16584,N,02638.31159,E,11.283,284.30,280424,,,A*5C

[2024-04-28 17:00:47.450895] $GPRMC,170850.00,A,3819.16660,N,02638.30769,E,11.091,285.41,280424,,,A*5F

[2024-04-28 17:00:48.451955] $GPRMC,170851.00,A,3819.16785,N,02638.30381,E,11.980,292.09,280424,,,A*55

[2024-04-28 17:00:49.451799] $GPRMC,170852.00,A,3819.16962,N,02638.29985,E,13.236,297.72,280424,,,A*5A

[2024-04-28 17:00:50.450633] $GPRMC,170853.00,A,3819.17194,N,02638.29613,E,13.542,305.41,280424,,,A*55

[2024-04-28 17:00:51.450273] $GPRMC,170854.00,A,3819.17505,N,02638.29235,E,14.976,317.04,280424,,,A*50

[2024-04-28 17:00:52.454225] $GPRMC,170855.00,A,3819.17855,N,02638.28945,E,15.075,326.70,280424,,,A*5E

[2024-04-28 17:00:53.453953] $GPRMC,170856.00,A,3819.18251,N,02638.28702,E,15.757,338.88,280424,,,A*5E

[2024-04-28 17:00:54.451324] $GPRMC,170857.00,A,3819.18686,N,02638.28514,E,16.331,346.84,280424,,,A*56

[2024-04-28 17:00:55.453079] $GPRMC,170858.00,A,3819.19124,N,02638.28415,E,16.145,350.75,280424,,,A*5F

[2024-04-28 17:00:56.457410] $GPRMC,170859.00,A,3819.19587,N,02638.28328,E,16.270,353.96,280424,,,A*51

[2024-04-28 17:00:57.454637] $GPRMC,170900.00,A,3819.20051,N,02638.28265,E,16.888,356.05,280424,,,A*52

[2024-04-28 17:00:58.453741] $GPRMC,170901.00,A,3819.20529,N,02638.28212,E,17.341,356.73,280424,,,A*57

[2024-04-28 17:00:59.451665] $GPRMC,170902.00,A,3819.21013,N,02638.28161,E,17.208,356.54,280424,,,A*57

[2024-04-28 17:01:00.452413] $GPRMC,170903.00,A,3819.21492,N,02638.28091,E,17.173,352.97,280424,,,A*51

[2024-04-28 17:01:01.458092] $GPRMC,170904.00,A,3819.21962,N,02638.27984,E,17.605,349.29,280424,,,A*5F

[2024-04-28 17:01:02.455183] $GPRMC,170905.00,A,3819.22443,N,02638.27833,E,18.153,346.64,280424,,,A*53

[2024-04-28 17:01:03.451082] $GPRMC,170906.00,A,3819.22920,N,02638.27651,E,17.949,343.69,280424,,,A*56

[2024-04-28 17:01:04.451686] $GPRMC,170907.00,A,3819.23402,N,02638.27439,E,17.990,341.42,280424,,,A*58

[2024-04-28 17:01:05.454490] $GPRMC,170908.00,A,3819.23868,N,02638.27211,E,17.637,338.51,280424,,,A*55

[2024-04-28 17:01:06.455463] $GPRMC,170909.00,A,3819.24316,N,02638.26956,E,17.695,335.36,280424,,,A*5C

[2024-04-28 17:01:07.460143] $GPRMC,170910.00,A,3819.24756,N,02638.26668,E,17.831,331.34,280424,,,A*50

[2024-04-28 17:01:08.454158] $GPRMC,170911.00,A,3819.25182,N,02638.26324,E,18.014,325.34,280424,,,A*57

[2024-04-28 17:01:09.451777] $GPRMC,170912.00,A,3819.25594,N,02638.25933,E,18.015,320.78,280424,,,A*54

[2024-04-28 17:01:10.453428] $GPRMC,170913.00,A,3819.25923,N,02638.25518,E,17.359,315.97,280424,,,A*53

[2024-04-28 17:01:11.454984] $GPRMC,170914.00,A,3819.26269,N,02638.25078,E,17.711,314.20,280424,,,A*54

[2024-04-28 17:01:12.453637] $GPRMC,170915.00,A,3819.26586,N,02638.24628,E,16.701,309.77,280424,,,A*5F

[2024-04-28 17:01:13.456573] $GPRMC,170916.00,A,3819.26866,N,02638.24177,E,15.990,307.11,280424,,,A*59

[2024-04-28 17:01:14.454995] $GPRMC,170917.00,A,3819.27131,N,02638.23726,E,15.732,305.44,280424,,,A*53

[2024-04-28 17:01:15.458235] $GPRMC,170918.00,A,3819.27378,N,02638.23262,E,15.943,303.44,280424,,,A*58

[2024-04-28 17:01:16.454911] $GPRMC,170919.00,A,3819.27605,N,02638.22780,E,16.099,299.92,280424,,,A*5A

[2024-04-28 17:01:17.452179] $GPRMC,170920.00,A,3819.27799,N,02638.22275,E,15.822,293.81,280424,,,A*58

[2024-04-28 17:01:18.452157] $GPRMC,170921.00,A,3819.27975,N,02638.21739,E,16.258,288.82,280424,,,A*56

[2024-04-28 17:01:19.454131] $GPRMC,170922.00,A,3819.28127,N,02638.21193,E,16.700,288.65,280424,,,A*52

[2024-04-28 17:01:20.454116] $GPRMC,170923.00,A,3819.28260,N,02638.20648,E,16.173,286.05,280424,,,A*59

[2024-04-28 17:01:21.452053] $GPRMC,170924.00,A,3819.28384,N,02638.20131,E,15.132,284.11,280424,,,A*5D

[2024-04-28 17:01:22.452706] $GPRMC,170925.00,A,3819.28488,N,02638.19619,E,14.931,282.25,280424,,,A*5B

[2024-04-28 17:01:23.455782] $GPRMC,170926.00,A,3819.28597,N,02638.19118,E,14.390,280.71,280424,,,A*53

[2024-04-28 17:01:24.456172] $GPRMC,170927.00,A,3819.28658,N,02638.18641,E,13.334,278.85,280424,,,A*5D

[2024-04-28 17:01:25.451441] $GPRMC,170928.00,A,3819.28684,N,02638.18204,E,12.292,275.00,280424,,,A*5A

[2024-04-28 17:01:26.455286] $GPRMC,170929.00,A,3819.28663,N,02638.17814,E,10.702,267.50,280424,,,A*5E

[2024-04-28 17:01:27.452400] $GPRMC,170930.00,A,3819.28583,N,02638.17480,E,9.812,260.86,280424,,,A*60

[2024-04-28 17:01:28.452798] $GPRMC,170931.00,A,3819.28473,N,02638.17171,E,10.024,251.34,280424,,,A*5A

[2024-04-28 17:01:29.456180] $GPRMC,170932.00,A,3819.28366,N,02638.16827,E,10.765,249.96,280424,,,A*52

[2024-04-28 17:01:30.455087] $GPRMC,170933.00,A,3819.28311,N,02638.16436,E,10.983,258.63,280424,,,A*53

[2024-04-28 17:01:31.451425] $GPRMC,170934.00,A,3819.28307,N,02638.16006,E,12.246,264.52,280424,,,A*59

[2024-04-28 17:01:32.455433] $GPRMC,170935.00,A,3819.28362,N,02638.15549,E,13.510,275.45,280424,,,A*55

[2024-04-28 17:01:33.453932] $GPRMC,170936.00,A,3819.28431,N,02638.15102,E,13.359,280.31,280424,,,A*5E

[2024-04-28 17:01:34.451845] $GPRMC,170937.00,A,3819.28511,N,02638.14614,E,14.142,280.96,280424,,,A*5F

[2024-04-28 17:01:35.451449] $GPRMC,170938.00,A,3819.28593,N,02638.14061,E,15.408,280.11,280424,,,A*5B

[2024-04-28 17:01:36.456552] $GPRMC,170939.00,A,3819.28681,N,02638.13460,E,16.968,279.95,280424,,,A*5A

[2024-04-28 17:01:37.459547] $GPRMC,170940.00,A,3819.28781,N,02638.12841,E,18.184,279.45,280424,,,A*52

[2024-04-28 17:01:38.457541] $GPRMC,170941.00,A,3819.28883,N,02638.12162,E,19.457,280.34,280424,,,A*5C

[2024-04-28 17:01:39.452386] $GPRMC,170942.00,A,3819.28995,N,02638.11465,E,20.215,280.39,280424,,,A*5F

[2024-04-28 17:01:40.452852] $GPRMC,170943.00,A,3819.29097,N,02638.10746,E,20.487,280.27,280424,,,A*55

[2024-04-28 17:01:41.453786] $GPRMC,170944.00,A,3819.29206,N,02638.10013,E,20.954,280.09,280424,,,A*50

[2024-04-28 17:01:42.455788] $GPRMC,170945.00,A,3819.29314,N,02638.09278,E,20.935,279.84,280424,,,A*50

[2024-04-28 17:01:43.459161] $GPRMC,170946.00,A,3819.29418,N,02638.08562,E,20.157,280.21,280424,,,A*50

[2024-04-28 17:01:44.456749] $GPRMC,170947.00,A,3819.29521,N,02638.07869,E,19.448,280.37,280424,,,A*55

[2024-04-28 17:01:45.455737] $GPRMC,170948.00,A,3819.29619,N,02638.07203,E,18.769,280.01,280424,,,A*50

[2024-04-28 17:01:46.457732] $GPRMC,170949.00,A,3819.29721,N,02638.06552,E,18.196,280.85,280424,,,A*53

[2024-04-28 17:01:47.453978] $GPRMC,170950.00,A,3819.29807,N,02638.05954,E,16.696,279.92,280424,,,A*50

[2024-04-28 17:01:48.456818] $GPRMC,170951.00,A,3819.29902,N,02638.05352,E,17.285,280.51,280424,,,A*57

[2024-04-28 17:01:49.456902] $GPRMC,170952.00,A,3819.29997,N,02638.04747,E,17.097,280.74,280424,,,A*5F

[2024-04-28 17:01:50.454478] $GPRMC,170953.00,A,3819.30088,N,02638.04168,E,16.584,281.47,280424,,,A*5D

[2024-04-28 17:01:51.452927] $GPRMC,170954.00,A,3819.30190,N,02638.03599,E,16.024,282.44,280424,,,A*50

[2024-04-28 17:01:52.454636] $GPRMC,170955.00,A,3819.30277,N,02638.03056,E,15.517,280.72,280424,,,A*5C

[2024-04-28 17:01:53.453200] $GPRMC,170956.00,A,3819.30368,N,02638.02468,E,16.581,280.07,280424,,,A*56

[2024-04-28 17:01:54.457936] $GPRMC,170957.00,A,3819.30458,N,02638.01847,E,18.011,279.51,280424,,,A*56

[2024-04-28 17:01:55.473036] $GPRMC,170958.00,A,3819.30559,N,02638.01172,E,19.344,279.63,280424,,,A*55

[2024-04-28 17:01:56.460060] $GPRMC,170959.00,A,3819.30664,N,02638.00466,E,20.461,280.24,280424,,,A*57

[2024-04-28 17:01:57.464808] $GPRMC,171000.00,A,3819.30771,N,02637.99730,E,21.500,280.34,280424,,,A*5F

[2024-04-28 17:01:58.461894] $GPRMC,171001.00,A,3819.30880,N,02637.98975,E,22.215,280.74,280424,,,A*55

[2024-04-28 17:01:59.460170] $GPRMC,171002.00,A,3819.30997,N,02637.98195,E,22.404,280.71,280424,,,A*54

[2024-04-28 17:02:00.459780] $GPRMC,171003.00,A,3819.31105,N,02637.97431,E,22.010,280.83,280424,,,A*5F

[2024-04-28 17:02:01.470081] $GPRMC,171004.00,A,3819.31211,N,02637.96675,E,22.358,280.51,280424,,,A*5D

[2024-04-28 17:02:02.461423] $GPRMC,171005.00,A,3819.31316,N,02637.95922,E,22.055,280.85,280424,,,A*53

[2024-04-28 17:02:03.465949] $GPRMC,171006.00,A,3819.31427,N,02637.95188,E,21.812,281.48,280424,,,A*55

[2024-04-28 17:02:04.466908] $GPRMC,171007.00,A,3819.31532,N,02637.94467,E,20.915,281.24,280424,,,A*59

[2024-04-28 17:02:05.461385] $GPRMC,171008.00,A,3819.31625,N,02637.93788,E,19.849,280.76,280424,,,A*52

[2024-04-28 17:02:06.469798] $GPRMC,171009.00,A,3819.31703,N,02637.93139,E,18.608,280.17,280424,,,A*57

[2024-04-28 17:02:07.465951] $GPRMC,171010.00,A,3819.31774,N,02637.92526,E,17.706,279.35,280424,,,A*52

[2024-04-28 17:02:08.466887] $GPRMC,171011.00,A,3819.31835,N,02637.91945,E,16.776,278.05,280424,,,A*57

[2024-04-28 17:02:09.463170] $GPRMC,171012.00,A,3819.31891,N,02637.91378,E,16.322,277.69,280424,,,A*5E

[2024-04-28 17:02:10.465201] $GPRMC,171013.00,A,3819.31933,N,02637.90838,E,15.476,278.12,280424,,,A*5E

[2024-04-28 17:02:11.461543] $GPRMC,171014.00,A,3819.31997,N,02637.90342,E,14.249,279.29,280424,,,A*53

[2024-04-28 17:02:12.466438] $GPRMC,171015.00,A,3819.32075,N,02637.89866,E,14.120,281.96,280424,,,A*5E

[2024-04-28 17:02:13.471112] $GPRMC,171016.00,A,3819.32172,N,02637.89352,E,15.450,284.15,280424,,,A*5A

[2024-04-28 17:02:14.461538] $GPRMC,171017.00,A,3819.32310,N,02637.88804,E,16.461,288.10,280424,,,A*5C

[2024-04-28 17:02:15.460735] $GPRMC,171018.00,A,3819.32466,N,02637.88242,E,16.852,289.69,280424,,,A*5E

[2024-04-28 17:02:16.466468] $GPRMC,171019.00,A,3819.32661,N,02637.87671,E,17.778,294.10,280424,,,A*55

[2024-04-28 17:02:17.465581] $GPRMC,171020.00,A,3819.32900,N,02637.87108,E,18.047,299.97,280424,,,A*58

[2024-04-28 17:02:18.461271] $GPRMC,171021.00,A,3819.33198,N,02637.86567,E,18.622,307.42,280424,,,A*56

[2024-04-28 17:02:19.461525] $GPRMC,171022.00,A,3819.33556,N,02637.86086,E,19.041,314.30,280424,,,A*5C

[2024-04-28 17:02:20.462262] $GPRMC,171023.00,A,3819.33968,N,02637.85641,E,19.976,320.11,280424,,,A*5B

[2024-04-28 17:02:21.466032] $GPRMC,171024.00,A,3819.34411,N,02637.85241,E,20.179,326.44,280424,,,A*57

[2024-04-28 17:02:22.466929] $GPRMC,171025.00,A,3819.34908,N,02637.84887,E,20.737,333.33,280424,,,A*5A

[2024-04-28 17:02:23.461687] $GPRMC,171026.00,A,3819.35441,N,02637.84634,E,21.140,341.35,280424,,,A*5A

[2024-04-28 17:02:24.462989] $GPRMC,171027.00,A,3819.36023,N,02637.84475,E,21.814,350.87,280424,,,A*5E

[2024-04-28 17:02:25.466298] $GPRMC,171028.00,A,3819.36629,N,02637.84453,E,22.100,0.71,280424,,,A*59

[2024-04-28 17:02:26.466137] $GPRMC,171029.00,A,3819.37236,N,02637.84540,E,22.660,7.64,280424,,,A*52

[2024-04-28 17:02:27.468380] $GPRMC,171030.00,A,3819.37861,N,02637.84644,E,22.683,9.44,280424,,,A*54

[2024-04-28 17:02:28.466301] $GPRMC,171031.00,A,3819.38483,N,02637.84772,E,22.955,9.46,280424,,,A*58

[2024-04-28 17:02:29.468121] $GPRMC,171032.00,A,3819.39120,N,02637.84898,E,23.220,9.23,280424,,,A*56

[2024-04-28 17:02:30.468467] $GPRMC,171033.00,A,3819.39757,N,02637.85033,E,23.052,10.19,280424,,,A*6F

[2024-04-28 17:02:31.467928] $GPRMC,171034.00,A,3819.40378,N,02637.85176,E,22.328,11.17,280424,,,A*6F

[2024-04-28 17:02:32.465776] $GPRMC,171035.00,A,3819.40980,N,02637.85319,E,21.800,10.41,280424,,,A*68

[2024-04-28 17:02:33.464669] $GPRMC,171036.00,A,3819.41568,N,02637.85451,E,21.149,9.64,280424,,,A*50

[2024-04-28 17:02:34.466636] $GPRMC,171037.00,A,3819.42143,N,02637.85563,E,20.699,8.73,280424,,,A*53

[2024-04-28 17:02:35.467937] $GPRMC,171038.00,A,3819.42710,N,02637.85662,E,20.406,7.68,280424,,,A*5F

[2024-04-28 17:02:36.467580] $GPRMC,171039.00,A,3819.43263,N,02637.85746,E,19.816,6.72,280424,,,A*54

[2024-04-28 17:02:37.463433] $GPRMC,171040.00,A,3819.43799,N,02637.85818,E,19.188,5.68,280424,,,A*58

[2024-04-28 17:02:38.466637] $GPRMC,171041.00,A,3819.44322,N,02637.85898,E,18.876,7.02,280424,,,A*55

[2024-04-28 17:02:39.462792] $GPRMC,171042.00,A,3819.44841,N,02637.85997,E,18.927,9.69,280424,,,A*50

[2024-04-28 17:02:40.463673] $GPRMC,171043.00,A,3819.45365,N,02637.86108,E,19.203,10.19,280424,,,A*63

[2024-04-28 17:02:41.463423] $GPRMC,171044.00,A,3819.45903,N,02637.86222,E,19.760,9.62,280424,,,A*51

[2024-04-28 17:02:42.460481] $GPRMC,171045.00,A,3819.46451,N,02637.86344,E,20.027,9.88,280424,,,A*52

[2024-04-28 17:02:43.473378] $GPRMC,171046.00,A,3819.47006,N,02637.86455,E,19.930,9.54,280424,,,A*55

[2024-04-28 17:02:44.470235] $GPRMC,171047.00,A,3819.47567,N,02637.86569,E,20.376,9.82,280424,,,A*51

[2024-04-28 17:02:45.466287] $GPRMC,171048.00,A,3819.48133,N,02637.86690,E,20.543,10.19,280424,,,A*6B

[2024-04-28 17:02:46.467136] $GPRMC,171049.00,A,3819.48694,N,02637.86817,E,20.249,10.20,280424,,,A*66

[2024-04-28 17:02:47.465646] $GPRMC,171050.00,A,3819.49245,N,02637.86938,E,19.883,10.32,280424,,,A*6E

[2024-04-28 17:02:48.464697] $GPRMC,171051.00,A,3819.49783,N,02637.87051,E,19.204,10.12,280424,,,A*60

[2024-04-28 17:02:49.467114] $GPRMC,171052.00,A,3819.50312,N,02637.87167,E,19.031,10.68,280424,,,A*6A

[2024-04-28 17:02:50.461822] $GPRMC,171053.00,A,3819.50834,N,02637.87279,E,18.839,9.50,280424,,,A*5A

[2024-04-28 17:02:51.463807] $GPRMC,171054.00,A,3819.51350,N,02637.87386,E,18.494,9.62,280424,,,A*5E

[2024-04-28 17:02:52.468147] $GPRMC,171055.00,A,3819.51859,N,02637.87499,E,18.373,10.34,280424,,,A*61

[2024-04-28 17:02:53.467015] $GPRMC,171056.00,A,3819.52367,N,02637.87616,E,18.379,10.84,280424,,,A*63

[2024-04-28 17:02:54.464981] $GPRMC,171057.00,A,3819.52875,N,02637.87731,E,18.406,10.50,280424,,,A*68

[2024-04-28 17:02:55.470854] $GPRMC,171058.00,A,3819.53388,N,02637.87849,E,18.756,10.23,280424,,,A*6D

[2024-04-28 17:02:56.466755] $GPRMC,171059.00,A,3819.53904,N,02637.87970,E,18.815,10.00,280424,,,A*60

[2024-04-28 17:02:57.463817] $GPRMC,171100.00,A,3819.54434,N,02637.88087,E,19.429,10.41,280424,,,A*6D

[2024-04-28 17:02:58.461238] $GPRMC,171101.00,A,3819.54980,N,02637.88217,E,20.071,11.15,280424,,,A*66

[2024-04-28 17:02:59.459886] $GPRMC,171102.00,A,3819.55528,N,02637.88354,E,20.074,10.85,280424,,,A*61

[2024-04-28 17:03:00.460460] $GPRMC,171103.00,A,3819.56047,N,02637.88486,E,18.659,10.77,280424,,,A*68

[2024-04-28 17:03:01.470029] $GPRMC,171104.00,A,3819.56486,N,02637.88597,E,15.595,11.39,280424,,,A*62

[2024-04-28 17:03:02.466904] $GPRMC,171105.00,A,3819.56839,N,02637.88692,E,12.312,12.42,280424,,,A*6C

[2024-04-28 17:03:03.462170] $GPRMC,171106.00,A,3819.57122,N,02637.88796,E,10.026,16.51,280424,,,A*68

[2024-04-28 17:03:04.466511] $GPRMC,171107.00,A,3819.57346,N,02637.88982,E,9.348,32.42,280424,,,A*55

[2024-04-28 17:03:05.467117] $GPRMC,171108.00,A,3819.57452,N,02637.89285,E,9.792,56.54,280424,,,A*53

[2024-04-28 17:03:06.467673] $GPRMC,171109.00,A,3819.57432,N,02637.89648,E,10.700,87.13,280424,,,A*6D

[2024-04-28 17:03:07.462046] $GPRMC,171110.00,A,3819.57399,N,02637.90081,E,12.653,94.07,280424,,,A*6A

[2024-04-28 17:03:08.467739] $GPRMC,171111.00,A,3819.57387,N,02637.90588,E,14.511,91.79,280424,,,A*67

[2024-04-28 17:03:09.463880] $GPRMC,171112.00,A,3819.57381,N,02637.91153,E,16.344,90.39,280424,,,A*60

[2024-04-28 17:03:10.464170] $GPRMC,171113.00,A,3819.57397,N,02637.91780,E,18.231,90.42,280424,,,A*6F

[2024-04-28 17:03:11.463659] $GPRMC,171114.00,A,3819.57392,N,02637.92436,E,18.973,90.35,280424,,,A*6D

[2024-04-28 17:03:12.464261] $GPRMC,171115.00,A,3819.57393,N,02637.93129,E,19.652,89.98,280424,,,A*65

[2024-04-28 17:03:13.469260] $GPRMC,171116.00,A,3819.57396,N,02637.93848,E,20.543,90.55,280424,,,A*6D

[2024-04-28 17:03:14.468054] $GPRMC,171117.00,A,3819.57407,N,02637.94594,E,20.683,90.48,280424,,,A*6B

[2024-04-28 17:03:15.468994] $GPRMC,171118.00,A,3819.57404,N,02637.95302,E,19.714,90.72,280424,,,A*63

[2024-04-28 17:03:16.467001] $GPRMC,171119.00,A,3819.57403,N,02637.95934,E,17.028,89.88,280424,,,A*61

[2024-04-28 17:03:17.468021] $GPRMC,171120.00,A,3819.57407,N,02637.96466,E,13.922,89.29,280424,,,A*6A

[2024-04-28 17:03:18.469106] $GPRMC,171121.00,A,3819.57406,N,02637.96882,E,10.562,89.45,280424,,,A*6D

[2024-04-28 17:03:19.468448] $GPRMC,171122.00,A,3819.57384,N,02637.97210,E,8.778,95.71,280424,,,A*59

[2024-04-28 17:03:20.467275] $GPRMC,171123.00,A,3819.57282,N,02637.97470,E,8.018,117.95,280424,,,A*6F

[2024-04-28 17:03:21.465464] $GPRMC,171124.00,A,3819.57111,N,02637.97605,E,7.535,142.17,280424,,,A*6E

[2024-04-28 17:03:22.465344] $GPRMC,171125.00,A,3819.56884,N,02637.97606,E,8.473,174.31,280424,,,A*65

[2024-04-28 17:03:23.468873] $GPRMC,171126.00,A,3819.56600,N,02637.97562,E,10.669,188.85,280424,,,A*59

[2024-04-28 17:03:24.470215] $GPRMC,171127.00,A,3819.56271,N,02637.97510,E,12.432,187.50,280424,,,A*56

[2024-04-28 17:03:25.466389] $GPRMC,171128.00,A,3819.55884,N,02637.97451,E,14.248,187.62,280424,,,A*52

[2024-04-28 17:03:26.466058] $GPRMC,171129.00,A,3819.55461,N,02637.97386,E,15.409,187.72,280424,,,A*5A

[2024-04-28 17:03:27.468448] $GPRMC,171130.00,A,3819.54996,N,02637.97320,E,16.841,187.65,280424,,,A*5F

[2024-04-28 17:03:28.468141] $GPRMC,171131.00,A,3819.54521,N,02637.97244,E,17.416,187.10,280424,,,A*50

[2024-04-28 17:03:29.470865] $GPRMC,171132.00,A,3819.54038,N,02637.97177,E,17.271,186.52,280424,,,A*5D

[2024-04-28 17:03:30.468714] $GPRMC,171133.00,A,3819.53562,N,02637.97106,E,17.033,187.53,280424,,,A*53

[2024-04-28 17:03:31.463520] $GPRMC,171134.00,A,3819.53102,N,02637.97027,E,16.447,188.47,280424,,,A*58

[2024-04-28 17:03:32.466995] $GPRMC,171135.00,A,3819.52653,N,02637.96915,E,16.187,192.47,280424,,,A*50

[2024-04-28 17:03:33.463432] $GPRMC,171136.00,A,3819.52248,N,02637.96742,E,15.146,201.93,280424,,,A*5F

[2024-04-28 17:03:34.463920] $GPRMC,171137.00,A,3819.51901,N,02637.96495,E,14.177,209.06,280424,,,A*55

[2024-04-28 17:03:35.463361] $GPRMC,171138.00,A,3819.51604,N,02637.96198,E,13.492,219.30,280424,,,A*55

[2024-04-28 17:03:36.467335] $GPRMC,171139.00,A,3819.51309,N,02637.95934,E,12.714,214.93,280424,,,A*59

[2024-04-28 17:03:37.468410] $GPRMC,171140.00,A,3819.50993,N,02637.95806,E,11.750,196.96,280424,,,A*50

[2024-04-28 17:03:38.471624] $GPRMC,171141.00,A,3819.50677,N,02637.95865,E,11.651,180.54,280424,,,A*58

[2024-04-28 17:03:39.464583] $GPRMC,171142.00,A,3819.50430,N,02637.96079,E,10.831,149.94,280424,,,A*5C

[2024-04-28 17:03:40.464600] $GPRMC,171143.00,A,3819.50264,N,02637.96417,E,11.719,123.74,280424,,,A*50

[2024-04-28 17:03:41.464577] $GPRMC,171144.00,A,3819.50213,N,02637.96844,E,12.677,99.39,280424,,,A*6E

[2024-04-28 17:03:42.467463] $GPRMC,171145.00,A,3819.50217,N,02637.97321,E,14.064,88.03,280424,,,A*69

[2024-04-28 17:03:43.469232] $GPRMC,171146.00,A,3819.50248,N,02637.97849,E,15.531,84.73,280424,,,A*6A

[2024-04-28 17:03:44.467015] $GPRMC,171147.00,A,3819.50282,N,02637.98443,E,17.072,86.73,280424,,,A*66

[2024-04-28 17:03:45.467598] $GPRMC,171148.00,A,3819.50292,N,02637.99096,E,18.657,90.07,280424,,,A*6F

[2024-04-28 17:03:46.467543] $GPRMC,171149.00,A,3819.50248,N,02637.99784,E,19.846,94.79,280424,,,A*6F

[2024-04-28 17:03:47.463601] $GPRMC,171150.00,A,3819.50182,N,02638.00493,E,20.520,97.74,280424,,,A*61

[2024-04-28 17:03:48.468142] $GPRMC,171151.00,A,3819.50089,N,02638.01226,E,21.107,99.59,280424,,,A*62

[2024-04-28 17:03:49.467741] $GPRMC,171152.00,A,3819.49982,N,02638.01974,E,21.741,100.07,280424,,,A*59

[2024-04-28 17:03:50.466864] $GPRMC,171153.00,A,3819.49872,N,02638.02746,E,22.579,100.49,280424,,,A*5A

[2024-04-28 17:03:51.464564] $GPRMC,171154.00,A,3819.49741,N,02638.03533,E,23.347,103.08,280424,,,A*5F

[2024-04-28 17:03:52.464605] $GPRMC,171155.00,A,3819.49583,N,02638.04332,E,23.577,105.03,280424,,,A*5A

[2024-04-28 17:03:53.464295] $GPRMC,171156.00,A,3819.49405,N,02638.05141,E,24.085,106.03,280424,,,A*5D

[2024-04-28 17:03:54.468785] $GPRMC,171157.00,A,3819.49213,N,02638.05972,E,24.844,106.62,280424,,,A*57

[2024-04-28 17:03:55.477444] $GPRMC,171158.00,A,3819.49007,N,02638.06801,E,24.907,107.80,280424,,,A*52

[2024-04-28 17:03:56.463730] $GPRMC,171159.00,A,3819.48781,N,02638.07622,E,24.789,109.50,280424,,,A*5E

[2024-04-28 17:03:57.468330] $GPRMC,171200.00,A,3819.48542,N,02638.08401,E,23.088,111.39,280424,,,A*57

[2024-04-28 17:03:58.464838] $GPRMC,171201.00,A,3819.48320,N,02638.09117,E,21.044,111.19,280424,,,A*57

[2024-04-28 17:03:59.464809] $GPRMC,171202.00,A,3819.48113,N,02638.09755,E,19.227,111.70,280424,,,A*55

[2024-04-28 17:04:00.464735] $GPRMC,171203.00,A,3819.47918,N,02638.10333,E,17.715,112.62,280424,,,A*5E

[2024-04-28 17:04:01.468980] $GPRMC,171204.00,A,3819.47735,N,02638.10862,E,15.861,113.32,280424,,,A*5D

[2024-04-28 17:04:02.466705] $GPRMC,171205.00,A,3819.47559,N,02638.11386,E,15.852,113.09,280424,,,A*5C

[2024-04-28 17:04:03.468750] $GPRMC,171206.00,A,3819.47399,N,02638.11914,E,15.613,110.22,280424,,,A*55

[2024-04-28 17:04:04.468832] $GPRMC,171207.00,A,3819.47226,N,02638.12421,E,15.664,112.74,280424,,,A*58

[2024-04-28 17:04:05.463785] $GPRMC,171208.00,A,3819.47062,N,02638.12909,E,15.034,112.78,280424,,,A*5D

[2024-04-28 17:04:06.464623] $GPRMC,171209.00,A,3819.46896,N,02638.13406,E,15.322,112.59,280424,,,A*5A

[2024-04-28 17:04:07.465909] $GPRMC,171210.00,A,3819.46721,N,02638.13924,E,16.324,112.39,280424,,,A*5F

[2024-04-28 17:04:08.464999] $GPRMC,171211.00,A,3819.46524,N,02638.14489,E,17.891,113.01,280424,,,A*5A

[2024-04-28 17:04:09.464954] $GPRMC,171212.00,A,3819.46313,N,02638.15090,E,18.721,112.99,280424,,,A*5D

[2024-04-28 17:04:10.466600] $GPRMC,171213.00,A,3819.46100,N,02638.15710,E,19.178,113.37,280424,,,A*5D

[2024-04-28 17:04:11.464129] $GPRMC,171214.00,A,3819.45878,N,02638.16346,E,19.774,113.56,280424,,,A*56

[2024-04-28 17:04:12.468647] $GPRMC,171215.00,A,3819.45650,N,02638.17005,E,20.554,112.83,280424,,,A*55

[2024-04-28 17:04:13.473073] $GPRMC,171216.00,A,3819.45419,N,02638.17683,E,21.053,112.31,280424,,,A*5B

[2024-04-28 17:04:14.465038] $GPRMC,171217.00,A,3819.45186,N,02638.18379,E,21.382,112.83,280424,,,A*50

[2024-04-28 17:04:15.464022] $GPRMC,171218.00,A,3819.44949,N,02638.19079,E,21.508,113.21,280424,,,A*5A

[2024-04-28 17:04:16.469140] $GPRMC,171219.00,A,3819.44700,N,02638.19779,E,21.882,113.76,280424,,,A*52

[2024-04-28 17:04:17.468635] $GPRMC,171220.00,A,3819.44453,N,02638.20496,E,22.200,113.49,280424,,,A*5A

[2024-04-28 17:04:18.467109] $GPRMC,171221.00,A,3819.44203,N,02638.21230,E,22.490,113.51,280424,,,A*55

[2024-04-28 17:04:19.467863] $GPRMC,171222.00,A,3819.43957,N,02638.21961,E,22.323,113.45,280424,,,A*5E

[2024-04-28 17:04:20.467470] $GPRMC,171223.00,A,3819.43706,N,02638.22687,E,22.367,113.94,280424,,,A*5D

[2024-04-28 17:04:21.466825] $GPRMC,171224.00,A,3819.43460,N,02638.23415,E,22.391,113.27,280424,,,A*50

[2024-04-28 17:04:22.467296] $GPRMC,171225.00,A,3819.43207,N,02638.24124,E,22.309,113.75,280424,,,A*50

[2024-04-28 17:04:23.464766] $GPRMC,171226.00,A,3819.42979,N,02638.24892,E,22.635,111.46,280424,,,A*5C

[2024-04-28 17:04:24.466332] $GPRMC,171227.00,A,3819.42745,N,02638.25619,E,22.617,111.78,280424,,,A*5D

[2024-04-28 17:04:25.468034] $GPRMC,171228.00,A,3819.42515,N,02638.26364,E,23.199,110.79,280424,,,A*59

[2024-04-28 17:04:26.468469] $GPRMC,171229.00,A,3819.42291,N,02638.27123,E,23.218,110.18,280424,,,A*5E

[2024-04-28 17:04:27.464601] $GPRMC,171230.00,A,3819.42086,N,02638.27893,E,22.919,108.69,280424,,,A*54

[2024-04-28 17:04:28.467596] $GPRMC,171231.00,A,3819.41912,N,02638.28667,E,22.917,105.13,280424,,,A*56

[2024-04-28 17:04:29.473906] $GPRMC,171232.00,A,3819.41775,N,02638.29468,E,23.209,102.04,280424,,,A*52

[2024-04-28 17:04:30.469215] $GPRMC,171233.00,A,3819.41670,N,02638.30266,E,23.888,98.32,280424,,,A*63

[2024-04-28 17:04:31.462626] $GPRMC,171234.00,A,3819.41608,N,02638.31103,E,24.223,94.43,280424,,,A*6C

[2024-04-28 17:04:32.467983] $GPRMC,171235.00,A,3819.41589,N,02638.31945,E,23.967,91.04,280424,,,A*67

[2024-04-28 17:04:33.464217] $GPRMC,171236.00,A,3819.41622,N,02638.32777,E,23.633,85.82,280424,,,A*6F

[2024-04-28 17:04:34.469685] $GPRMC,171237.00,A,3819.41708,N,02638.33595,E,23.338,81.62,280424,,,A*6C

[2024-04-28 17:04:35.469253] $GPRMC,171238.00,A,3819.41815,N,02638.34433,E,23.895,80.78,280424,,,A*6C

[2024-04-28 17:04:36.466409] $GPRMC,171239.00,A,3819.41912,N,02638.35262,E,23.353,82.21,280424,,,A*67

[2024-04-28 17:04:37.466432] $GPRMC,171240.00,A,3819.41994,N,02638.36067,E,22.470,82.68,280424,,,A*69

[2024-04-28 17:04:38.472607] $GPRMC,171241.00,A,3819.42073,N,02638.36843,E,21.385,82.00,280424,,,A*65

[2024-04-28 17:04:39.468574] $GPRMC,171242.00,A,3819.42156,N,02638.37575,E,20.538,82.07,280424,,,A*6F

[2024-04-28 17:04:40.468336] $GPRMC,171243.00,A,3819.42232,N,02638.38252,E,19.453,82.13,280424,,,A*61

[2024-04-28 17:04:41.465195] $GPRMC,171244.00,A,3819.42307,N,02638.38897,E,18.429,81.49,280424,,,A*62

[2024-04-28 17:04:42.467518] $GPRMC,171245.00,A,3819.42384,N,02638.39527,E,18.006,81.35,280424,,,A*6D

[2024-04-28 17:04:43.472010] $GPRMC,171246.00,A,3819.42464,N,02638.40138,E,17.827,81.13,280424,,,A*63

[2024-04-28 17:04:44.470508] $GPRMC,171247.00,A,3819.42538,N,02638.40766,E,18.156,81.35,280424,,,A*63

[2024-04-28 17:04:45.465069] $GPRMC,171248.00,A,3819.42606,N,02638.41414,E,18.465,82.13,280424,,,A*67

[2024-04-28 17:04:46.466333] $GPRMC,171249.00,A,3819.42667,N,02638.42069,E,18.582,82.86,280424,,,A*68

[2024-04-28 17:04:47.468601] $GPRMC,171250.00,A,3819.42740,N,02638.42711,E,18.560,82.18,280424,,,A*67

[2024-04-28 17:04:48.469992] $GPRMC,171251.00,A,3819.42830,N,02638.43355,E,18.769,79.54,280424,,,A*6C

[2024-04-28 17:04:49.469819] $GPRMC,171252.00,A,3819.42978,N,02638.44022,E,19.421,72.73,280424,,,A*66

[2024-04-28 17:04:50.466571] $GPRMC,171253.00,A,3819.43186,N,02638.44677,E,19.817,64.82,280424,,,A*69

[2024-04-28 17:04:51.464582] $GPRMC,171254.00,A,3819.43456,N,02638.45272,E,19.470,57.74,280424,,,A*62

[2024-04-28 17:04:52.468233] $GPRMC,171255.00,A,3819.43794,N,02638.45823,E,19.909,50.85,280424,,,A*6A

[2024-04-28 17:04:53.469161] $GPRMC,171256.00,A,3819.44184,N,02638.46334,E,20.093,42.91,280424,,,A*61

[2024-04-28 17:04:54.465236] $GPRMC,171257.00,A,3819.44613,N,02638.46778,E,19.923,36.95,280424,,,A*6A

[2024-04-28 17:04:55.470651] $GPRMC,171258.00,A,3819.45048,N,02638.47173,E,19.114,34.01,280424,,,A*63

[2024-04-28 17:04:56.467859] $GPRMC,171259.00,A,3819.45466,N,02638.47532,E,17.904,33.15,280424,,,A*6E

[2024-04-28 17:04:57.465775] $GPRMC,171300.00,A,3819.45850,N,02638.47851,E,15.969,32.47,280424,,,A*6D

[2024-04-28 17:04:58.467990] $GPRMC,171301.00,A,3819.46172,N,02638.48096,E,12.857,29.80,280424,,,A*60

[2024-04-28 17:04:59.465377] $GPRMC,171302.00,A,3819.46452,N,02638.48263,E,10.450,23.83,280424,,,A*6C

[2024-04-28 17:05:00.465782] $GPRMC,171303.00,A,3819.46686,N,02638.48347,E,8.203,15.69,280424,,,A*59

[2024-04-28 17:05:01.470257] $GPRMC,171304.00,A,3819.46864,N,02638.48356,E,5.880,10.11,280424,,,A*5A

[2024-04-28 17:05:02.467350] $GPRMC,171305.00,A,3819.47015,N,02638.48338,E,5.217,3.46,280424,,,A*68

[2024-04-28 17:05:03.465111] $GPRMC,171306.00,A,3819.47128,N,02638.48290,E,3.780,359.25,280424,,,A*63

[2024-04-28 17:05:04.465228] $GPRMC,171307.00,A,3819.47252,N,02638.48230,E,4.789,349.83,280424,,,A*65

[2024-04-28 17:05:05.465799] $GPRMC,171308.00,A,3819.47418,N,02638.48187,E,6.018,351.11,280424,,,A*62

[2024-04-28 17:05:06.465624] $GPRMC,171309.00,A,3819.47619,N,02638.48146,E,7.184,352.12,280424,,,A*68

[2024-04-28 17:05:07.463326] $GPRMC,171310.00,A,3819.47834,N,02638.48092,E,7.985,350.13,280424,,,A*63

[2024-04-28 17:05:08.464736] $GPRMC,171311.00,A,3819.48116,N,02638.48029,E,10.638,349.92,280424,,,A*5A

[2024-04-28 17:05:09.464941] $GPRMC,171312.00,A,3819.48464,N,02638.47962,E,13.087,350.70,280424,,,A*55

[2024-04-28 17:05:10.465291] $GPRMC,171313.00,A,3819.48856,N,02638.47894,E,14.575,351.81,280424,,,A*51

[2024-04-28 17:05:11.463938] $GPRMC,171314.00,A,3819.49296,N,02638.47833,E,15.988,355.49,280424,,,A*53

[2024-04-28 17:05:12.465232] $GPRMC,171315.00,A,3819.49761,N,02638.47799,E,16.972,357.55,280424,,,A*59

[2024-04-28 17:05:13.470575] $GPRMC,171316.00,A,3819.50247,N,02638.47819,E,17.976,3.22,280424,,,A*53

[2024-04-28 17:05:14.469799] $GPRMC,171317.00,A,3819.50747,N,02638.47910,E,18.786,9.69,280424,,,A*54

[2024-04-28 17:05:15.469636] $GPRMC,171318.00,A,3819.51265,N,02638.48041,E,19.159,11.98,280424,,,A*6F

[2024-04-28 17:05:16.468261] $GPRMC,171319.00,A,3819.51793,N,02638.48191,E,19.716,12.20,280424,,,A*63

[2024-04-28 17:05:17.468033] $GPRMC,171320.00,A,3819.52338,N,02638.48334,E,20.112,11.83,280424,,,A*60

[2024-04-28 17:05:18.469509] $GPRMC,171321.00,A,3819.52890,N,02638.48485,E,20.137,11.53,280424,,,A*6F

[2024-04-28 17:05:19.473793] $GPRMC,171322.00,A,3819.53422,N,02638.48618,E,18.967,11.89,280424,,,A*6F

[2024-04-28 17:05:20.463930] $GPRMC,171323.00,A,3819.53884,N,02638.48742,E,16.253,11.78,280424,,,A*6C

[2024-04-28 17:05:21.464735] $GPRMC,171324.00,A,3819.54241,N,02638.48845,E,12.102,11.93,280424,,,A*61

[2024-04-28 17:05:22.465013] $GPRMC,171325.00,A,3819.54575,N,02638.48933,E,12.084,11.81,280424,,,A*6C

[2024-04-28 17:05:23.469416] $GPRMC,171326.00,A,3819.54934,N,02638.49028,E,13.434,12.76,280424,,,A*61

[2024-04-28 17:05:24.470550] $GPRMC,171327.00,A,3819.55327,N,02638.49151,E,14.879,15.21,280424,,,A*61

[2024-04-28 17:05:25.475562] $GPRMC,171328.00,A,3819.55741,N,02638.49369,E,16.015,21.89,280424,,,A*66

[2024-04-28 17:05:26.469626] $GPRMC,171329.00,A,3819.56178,N,02638.49645,E,17.489,26.25,280424,,,A*62

[2024-04-28 17:05:27.472462] $GPRMC,171330.00,A,3819.56644,N,02638.49933,E,18.730,25.72,280424,,,A*63

[2024-04-28 17:05:28.472012] $GPRMC,171331.00,A,3819.57135,N,02638.50237,E,19.886,25.88,280424,,,A*63

[2024-04-28 17:05:29.475996] $GPRMC,171332.00,A,3819.57634,N,02638.50576,E,20.456,28.81,280424,,,A*6B

[2024-04-28 17:05:30.471896] $GPRMC,171333.00,A,3819.58105,N,02638.50974,E,20.310,36.04,280424,,,A*69

[2024-04-28 17:05:31.463615] $GPRMC,171334.00,A,3819.58578,N,02638.51392,E,20.857,34.33,280424,,,A*6D

[2024-04-28 17:05:32.467091] $GPRMC,171335.00,A,3819.58899,N,02638.51830,E,17.177,46.48,280424,,,A*6B

[2024-04-28 17:05:33.467196] $GPRMC,171336.00,A,3819.59317,N,02638.52384,E,21.937,46.54,280424,,,A*67

[2024-04-28 17:05:34.467841] $GPRMC,171337.00,A,3819.59756,N,02638.52996,E,23.340,45.88,280424,,,A*64

[2024-04-28 17:05:35.466237] $GPRMC,171338.00,A,3819.60227,N,02638.53622,E,24.100,44.76,280424,,,A*62

[2024-04-28 17:05:36.468945] $GPRMC,171339.00,A,3819.60709,N,02638.54249,E,24.647,42.91,280424,,,A*6F

[2024-04-28 17:05:37.469586] $GPRMC,171340.00,A,3819.61253,N,02638.54857,E,24.652,38.47,280424,,,A*6D

[2024-04-28 17:05:38.472234] $GPRMC,171341.00,A,3819.61835,N,02638.55362,E,24.645,32.44,280424,,,A*65

[2024-04-28 17:05:39.472140] $GPRMC,171342.00,A,3819.62470,N,02638.55841,E,24.586,28.40,280424,,,A*61

[2024-04-28 17:05:40.475294] $GPRMC,171343.00,A,3819.63102,N,02638.56247,E,24.397,26.89,280424,,,A*63

[2024-04-28 17:05:41.475105] $GPRMC,171344.00,A,3819.63706,N,02638.56650,E,24.115,27.55,280424,,,A*6C

[2024-04-28 17:05:42.474242] $GPRMC,171345.00,A,3819.64305,N,02638.57068,E,23.872,29.59,280424,,,A*6C

[2024-04-28 17:05:43.478691] $GPRMC,171346.00,A,3819.64870,N,02638.57504,E,23.630,32.09,280424,,,A*6E

[2024-04-28 17:05:44.471232] $GPRMC,171347.00,A,3819.65428,N,02638.57945,E,23.370,32.03,280424,,,A*6D

[2024-04-28 17:05:45.469016] $GPRMC,171348.00,A,3819.65972,N,02638.58383,E,23.116,33.07,280424,,,A*68

[2024-04-28 17:05:46.473915] $GPRMC,171349.00,A,3819.66509,N,02638.58823,E,22.865,32.92,280424,,,A*6A

[2024-04-28 17:05:47.471107] $GPRMC,171350.00,A,3819.67031,N,02638.59250,E,22.091,32.57,280424,,,A*68

[2024-04-28 17:05:48.471420] $GPRMC,171351.00,A,3819.67506,N,02638.59642,E,19.712,33.43,280424,,,A*6F

[2024-04-28 17:05:49.475729] $GPRMC,171352.00,A,3819.67916,N,02638.60033,E,17.710,37.66,280424,,,A*64

[2024-04-28 17:05:50.474117] $GPRMC,171353.00,A,3819.68280,N,02638.60454,E,17.541,44.31,280424,,,A*6B

[2024-04-28 17:05:51.474345] $GPRMC,171354.00,A,3819.68627,N,02638.60899,E,17.708,45.39,280424,,,A*6E

[2024-04-28 17:05:52.476877] $GPRMC,171355.00,A,3819.68939,N,02638.61313,E,16.154,46.17,280424,,,A*66

[2024-04-28 17:05:53.469263] $GPRMC,171356.00,A,3819.69217,N,02638.61705,E,15.215,47.33,280424,,,A*62

[2024-04-28 17:05:54.471511] $GPRMC,171357.00,A,3819.69516,N,02638.62121,E,15.987,47.59,280424,,,A*6A

[2024-04-28 17:05:55.477183] $GPRMC,171358.00,A,3819.69782,N,02638.62508,E,14.783,49.75,280424,,,A*6E

[2024-04-28 17:05:56.473013] $GPRMC,171359.00,A,3819.69967,N,02638.62837,E,10.661,52.85,280424,,,A*67

[2024-04-28 17:05:57.470784] $GPRMC,171400.00,A,3819.70069,N,02638.63018,E,5.234,52.68,280424,,,A*54

[2024-04-28 17:05:58.474033] $GPRMC,171401.00,A,3819.70106,N,02638.63099,E,2.298,52.63,280424,,,A*5E

[2024-04-28 17:05:59.475214] $GPRMC,171402.00,A,3819.70142,N,02638.63174,E,2.565,54.54,280424,,,A*58

[2024-04-28 17:06:00.473852] $GPRMC,171403.00,A,3819.70206,N,02638.63277,E,3.882,50.10,280424,,,A*5B

[2024-04-28 17:06:01.472298] $GPRMC,171404.00,A,3819.70325,N,02638.63435,E,6.301,46.18,280424,,,A*56

[2024-04-28 17:06:02.475325] $GPRMC,171405.00,A,3819.70479,N,02638.63620,E,7.491,44.95,280424,,,A*57

[2024-04-28 17:06:03.475715] $GPRMC,171406.00,A,3819.70629,N,02638.63853,E,8.739,51.95,280424,,,A*53

[2024-04-28 17:06:04.476383] $GPRMC,171407.00,A,3819.70756,N,02638.64116,E,8.413,58.08,280424,,,A*52

[2024-04-28 17:06:05.472895] $GPRMC,171408.00,A,3819.70871,N,02638.64361,E,7.383,59.94,280424,,,A*50

[2024-04-28 17:06:06.472981] $GPRMC,171409.00,A,3819.70943,N,02638.64523,E,4.017,61.16,280424,,,A*5D

[2024-04-28 17:06:07.470477] $GPRMC,171410.00,A,3819.70989,N,02638.64612,E,2.462,61.98,280424,,,A*54

[2024-04-28 17:06:08.471042] $GPRMC,171411.00,A,3819.71043,N,02638.64690,E,3.008,58.24,280424,,,A*55

[2024-04-28 17:06:09.469184] $GPRMC,171412.00,A,3819.71112,N,02638.64776,E,3.733,45.21,280424,,,A*5C

[2024-04-28 17:06:10.470633] $GPRMC,171413.00,A,3819.71274,N,02638.64883,E,6.728,25.91,280424,,,A*59

[2024-04-28 17:06:11.473255] $GPRMC,171414.00,A,3819.71523,N,02638.64896,E,8.752,3.93,280424,,,A*6A

[2024-04-28 17:06:12.473719] $GPRMC,171415.00,A,3819.71817,N,02638.64809,E,11.254,348.13,280424,,,A*58

[2024-04-28 17:06:13.480147] $GPRMC,171416.00,A,3819.72163,N,02638.64642,E,13.827,337.85,280424,,,A*58

[2024-04-28 17:06:14.476511] $GPRMC,171417.00,A,3819.72553,N,02638.64447,E,15.447,338.18,280424,,,A*5E

[2024-04-28 17:06:15.472679] $GPRMC,171418.00,A,3819.72992,N,02638.64233,E,17.278,337.71,280424,,,A*5D

[2024-04-28 17:06:16.477264] $GPRMC,171419.00,A,3819.73470,N,02638.63968,E,19.299,335.58,280424,,,A*56

[2024-04-28 17:06:17.471774] $GPRMC,171420.00,A,3819.73982,N,02638.63634,E,21.100,331.04,280424,,,A*5F

[2024-04-28 17:06:18.470894] $GPRMC,171421.00,A,3819.74512,N,02638.63231,E,22.458,328.65,280424,,,A*59

[2024-04-28 17:06:19.471822] $GPRMC,171422.00,A,3819.75026,N,02638.62787,E,22.273,324.74,280424,,,A*53

[2024-04-28 17:06:20.473477] $GPRMC,171423.00,A,3819.75512,N,02638.62331,E,21.738,321.89,280424,,,A*57

[2024-04-28 17:06:21.472728] $GPRMC,171424.00,A,3819.75959,N,02638.61841,E,21.238,317.88,280424,,,A*5D

[2024-04-28 17:06:22.470952] $GPRMC,171425.00,A,3819.76398,N,02638.61366,E,20.544,319.39,280424,,,A*5F

[2024-04-28 17:06:23.470375] $GPRMC,171426.00,A,3819.76833,N,02638.60884,E,20.601,318.51,280424,,,A*5D

[2024-04-28 17:06:24.473991] $GPRMC,171427.00,A,3819.77260,N,02638.60398,E,20.435,317.13,280424,,,A*5B

[2024-04-28 17:06:25.475018] $GPRMC,171428.00,A,3819.77611,N,02638.59976,E,16.516,317.08,280424,,,A*59

[2024-04-28 17:06:26.472623] $GPRMC,171429.00,A,3819.77884,N,02638.59646,E,12.799,316.71,280424,,,A*58

[2024-04-28 17:06:27.470774] $GPRMC,171430.00,A,3819.78124,N,02638.59367,E,11.208,316.49,280424,,,A*5F

[2024-04-28 17:06:28.471433] $GPRMC,171431.00,A,3819.78340,N,02638.59126,E,9.994,317.40,280424,,,A*66

[2024-04-28 17:06:29.476827] $GPRMC,171432.00,A,3819.78533,N,02638.58908,E,9.117,318.03,280424,,,A*69

[2024-04-28 17:06:30.475392] $GPRMC,171433.00,A,3819.78729,N,02638.58759,E,8.098,328.25,280424,,,A*6B

[2024-04-28 17:06:31.470588] $GPRMC,171434.00,A,3819.78928,N,02638.58647,E,7.812,334.19,280424,,,A*6A

[2024-04-28 17:06:32.471246] $GPRMC,171435.00,A,3819.79137,N,02638.58495,E,9.082,328.54,280424,,,A*6A

[2024-04-28 17:06:33.472112] $GPRMC,171436.00,A,3819.79427,N,02638.58298,E,12.538,330.40,280424,,,A*54

[2024-04-28 17:06:34.473003] $GPRMC,171437.00,A,3819.79788,N,02638.58033,E,15.855,329.02,280424,,,A*5F

[2024-04-28 17:06:35.472139] $GPRMC,171438.00,A,3819.80215,N,02638.57759,E,17.634,335.00,280424,,,A*57

[2024-04-28 17:06:36.471866] $GPRMC,171439.00,A,3819.80696,N,02638.57541,E,18.579,342.05,280424,,,A*52

[2024-04-28 17:06:37.470817] $GPRMC,171440.00,A,3819.81222,N,02638.57370,E,19.931,347.70,280424,,,A*54

[2024-04-28 17:06:38.472951] $GPRMC,171441.00,A,3819.81767,N,02638.57263,E,20.313,352.54,280424,,,A*50

[2024-04-28 17:06:39.474803] $GPRMC,171442.00,A,3819.82349,N,02638.57175,E,20.990,353.18,280424,,,A*54

[2024-04-28 17:06:40.471652] $GPRMC,171443.00,A,3819.82942,N,02638.57076,E,21.011,352.15,280424,,,A*5B

[2024-04-28 17:06:41.470841] $GPRMC,171444.00,A,3819.83527,N,02638.56979,E,20.813,353.12,280424,,,A*58

[2024-04-28 17:06:42.475809] $GPRMC,171445.00,A,3819.84080,N,02638.56900,E,20.032,354.06,280424,,,A*51

[2024-04-28 17:06:43.479226] $GPRMC,171446.00,A,3819.84624,N,02638.56834,E,19.201,354.50,280424,,,A*57

[2024-04-28 17:06:44.471724] $GPRMC,171447.00,A,3819.85161,N,02638.56754,E,18.797,354.42,280424,,,A*50

[2024-04-28 17:06:45.471420] $GPRMC,171448.00,A,3819.85679,N,02638.56681,E,18.595,353.27,280424,,,A*5C

[2024-04-28 17:06:46.471379] $GPRMC,171449.00,A,3819.86196,N,02638.56601,E,18.645,353.22,280424,,,A*5B

[2024-04-28 17:06:47.470705] $GPRMC,171450.00,A,3819.86725,N,02638.56519,E,18.959,354.08,280424,,,A*5A

[2024-04-28 17:06:48.470888] $GPRMC,171451.00,A,3819.87258,N,02638.56476,E,19.255,356.19,280424,,,A*59

[2024-04-28 17:06:49.470862] $GPRMC,171452.00,A,3819.87810,N,02638.56455,E,19.208,359.81,280424,,,A*5B

[2024-04-28 17:06:50.471038] $GPRMC,171453.00,A,3819.88350,N,02638.56497,E,19.134,4.40,280424,,,A*5E

[2024-04-28 17:06:51.473961] $GPRMC,171454.00,A,3819.88871,N,02638.56621,E,19.051,12.98,280424,,,A*6E

[2024-04-28 17:06:52.476663] $GPRMC,171455.00,A,3819.89355,N,02638.56860,E,18.926,23.75,280424,,,A*61

[2024-04-28 17:06:53.473301] $GPRMC,171456.00,A,3819.89794,N,02638.57198,E,18.547,33.83,280424,,,A*67

[2024-04-28 17:06:54.475007] $GPRMC,171457.00,A,3819.90193,N,02638.57599,E,18.667,39.82,280424,,,A*60

[2024-04-28 17:06:55.482385] $GPRMC,171458.00,A,3819.90599,N,02638.58056,E,19.771,42.00,280424,,,A*69

[2024-04-28 17:06:56.474045] $GPRMC,171459.00,A,3819.91015,N,02638.58558,E,20.900,44.10,280424,,,A*66

[2024-04-28 17:06:57.473377] $GPRMC,171500.00,A,3819.91431,N,02638.59087,E,21.056,44.81,280424,,,A*6C

[2024-04-28 17:06:58.473273] $GPRMC,171501.00,A,3819.91845,N,02638.59595,E,20.265,43.84,280424,,,A*65

[2024-04-28 17:06:59.473868] $GPRMC,171502.00,A,3819.92194,N,02638.60029,E,16.936,43.44,280424,,,A*6C

[2024-04-28 17:07:00.474789] $GPRMC,171503.00,A,3819.92467,N,02638.60385,E,13.602,43.65,280424,,,A*6F

[2024-04-28 17:07:01.478171] $GPRMC,171504.00,A,3819.92725,N,02638.60698,E,12.907,42.70,280424,,,A*6A

[2024-04-28 17:07:02.470450] $GPRMC,171505.00,A,3819.92972,N,02638.60984,E,11.888,41.86,280424,,,A*6A

[2024-04-28 17:07:03.473142] $GPRMC,171506.00,A,3819.93217,N,02638.61279,E,12.390,43.12,280424,,,A*66

[2024-04-28 17:07:04.475089] $GPRMC,171507.00,A,3819.93476,N,02638.61593,E,13.104,43.40,280424,,,A*6C

[2024-04-28 17:07:05.474973] $GPRMC,171508.00,A,3819.93738,N,02638.61928,E,13.248,44.53,280424,,,A*68

[2024-04-28 17:07:06.472448] $GPRMC,171509.00,A,3819.93999,N,02638.62234,E,12.583,42.55,280424,,,A*68

[2024-04-28 17:07:07.470887] $GPRMC,171510.00,A,3819.94209,N,02638.62494,E,10.178,43.73,280424,,,A*6E

[2024-04-28 17:07:08.471060] $GPRMC,171511.00,A,3819.94394,N,02638.62699,E,8.309,42.13,280424,,,A*5F

[2024-04-28 17:07:09.475289] $GPRMC,171512.00,A,3819.94565,N,02638.62891,E,8.007,41.71,280424,,,A*58

[2024-04-28 17:07:10.478827] $GPRMC,171513.00,A,3819.94749,N,02638.63093,E,8.456,42.17,280424,,,A*5D

[2024-04-28 17:07:11.474060] $GPRMC,171514.00,A,3819.94968,N,02638.63333,E,10.954,41.95,280424,,,A*61

[2024-04-28 17:07:12.472229] $GPRMC,171515.00,A,3819.95196,N,02638.63605,E,11.326,43.59,280424,,,A*64

[2024-04-28 17:07:13.477479] $GPRMC,171516.00,A,3819.95506,N,02638.63963,E,14.878,42.50,280424,,,A*68

[2024-04-28 17:07:14.477169] $GPRMC,171517.00,A,3819.95836,N,02638.64344,E,15.776,43.35,280424,,,A*6D

[2024-04-28 17:07:15.476950] $GPRMC,171518.00,A,3819.96191,N,02638.64750,E,16.887,42.47,280424,,,A*62

[2024-04-28 17:07:16.474152] $GPRMC,171519.00,A,3819.96564,N,02638.65173,E,17.601,41.96,280424,,,A*65

[2024-04-28 17:07:17.471773] $GPRMC,171520.00,A,3819.96953,N,02638.65614,E,18.475,41.96,280424,,,A*6F

[2024-04-28 17:07:18.471863] $GPRMC,171521.00,A,3819.97345,N,02638.66074,E,18.968,43.16,280424,,,A*6A

[2024-04-28 17:07:19.474187] $GPRMC,171522.00,A,3819.97737,N,02638.66533,E,18.977,43.09,280424,,,A*6E

[2024-04-28 17:07:20.468144] $GPRMC,171523.00,A,3819.98120,N,02638.66975,E,18.569,43.09,280424,,,A*6D

[2024-04-28 17:07:21.467530] $GPRMC,171524.00,A,3819.98489,N,02638.67421,E,18.270,44.30,280424,,,A*63

[2024-04-28 17:07:22.471866] $GPRMC,171525.00,A,3819.98864,N,02638.67868,E,18.291,43.08,280424,,,A*6F

[2024-04-28 17:07:23.470995] $GPRMC,171526.00,A,3819.99248,N,02638.68305,E,18.315,41.76,280424,,,A*60

[2024-04-28 17:07:24.472243] $GPRMC,171527.00,A,3819.99631,N,02638.68721,E,18.195,40.03,280424,,,A*60

[2024-04-28 17:07:25.474097] $GPRMC,171528.00,A,3820.00027,N,02638.69113,E,18.070,37.38,280424,,,A*60

[2024-04-28 17:07:26.473673] $GPRMC,171529.00,A,3820.00423,N,02638.69484,E,17.657,36.23,280424,,,A*6D